School Name,BoroughCode,Geographical District,Project Description,Construction Award,Project type,Building ID,Building Address,City,Postcode,Borough,Latitude,Longitude,Community Board,Council District,Census Tract,BIN,BBL,NTA,Location 1,Data As Of,data_year
,M,2,,0,CAP,M777,227 WEST 27TH STREET,Manhattan,,,,,,,,,,,,,
BAYSIDE HIGH SCHOOL - QUEENS,Q,26,FY19 RESO A AUDITORIUM UPGRADE,1261000,CIP,Q405,32-24 CORPORAL KENNEDY STREET,Queens,10301,Q,,,,,,,,,,1/6/22,2022
P.S. @ PARCEL F - QUEENS,Q,30,Demo,0,CAP,,2ND STREET BETWEEN 56TH AND 57TH AVENUE,Queens,11101,,,,,,,,,,,10/30/18,2018
3K CENTER @ 3893 DYRE AVENUE - BRONX,X,11,Lease,6262000,CAP,X501,3893 DYRE AVEUNE,Bronx,,X,,,,,,,,,,8/4/22,2022
P.S. 129 - QUEENS,Q,25,Addition,0,CAP,Q129,128-02 7TH AVENUE,Queens,11356,QUEENS,40.790638,-73.839771,7,19,945,4096774,4039760001,Whitestone,"(40.790638, -73.839771)",2/6/19,2019
P.S. @ PARCEL F - QUEENS,Q,30,New,0,CAP,Q375,2ND STREET BETWEEN 56TH AND 57TH AVENUE,Queens,11101,,,,,,,,,,,10/30/18,2018
P.S. 312 - BROOKLYN,K,22,WATER PENETRATION,774786,CIP,K312,7103 AVENUE T,Brooklyn,10301,K,,,,,,,,,,1/6/22,2022
P.S. 172 - BROOKLYN,K,15,STANDALONE GYM ANNEX,8730000,CIP,K477,825 4TH AVENUE,Brooklyn,10301,K,,,,,,,,,,1/6/22,2022
P.S. 38 - MANHATTAN,M,4,PARAPETS,1526000,CIP,M121,232 EAST 103 STREET,Manhattan,10301,M,,,,,,,,,,1/6/22,2022
P.S. 190 - BROOKLYN,K,19,STANDALONE GYM ANNEX,8464400,CIP,K478,590 SHEFIELD AVENUE,Brooklyn,,,,,,,,,,,,8/9/21,2021
P.S. @ PARCEL F - QUEENS,Q,30,Demo,0,CAP,Q375,2ND STREET BETWEEN 56TH AND 57TH AVENUE,Queens,11101,,,,,,,,,,,2/6/19,2019
THOMAS A. EDISON HS - Q,Q,28,FY18 RESO A LIBRARY UPGRADES,493200,CIP,Q620,165-65 84 AVENUE,Queens,10301,Q,,,,,,,,,,1/6/22,2022
NEW UTRECHT HS - BROOKLYN,K,20,WATER PENETRATION INTO BASEMENT/NATATORIUM RECONST,8803000,CIP,K445,1601 80 STREET,Brooklyn,11214,BROOKLYN ,40.613262,-74.003404,11,43,182,3162711,3062710001,Bensonhurst West                                                           ,"(40.613262, -74.003404)",1/31/18,2018
P.S. 295 - BROOKLYN,K,15,GYM & CAFE FLOOR/FLOOD/FLOOR/PARAPETS/MASONRY/ROOF,9114000,CIP,K845,330 18 STREET,Brooklyn,11215,BROOKLYN ,40.660976,-73.988297,7,38,147,3331274,3008800001,Sunset Park West                                                           ,"(40.660976, -73.988297)",1/31/18,2018
P.S. 131 - BROOKLYN,K,15,WATER PENETRATION/FLOOD/PARAPETS/ROOFS,12900000,CIP,K131,4305 FT HAMILTON PKWY,Brooklyn,11219,BROOKLYN ,40.641157,-73.993482,12,39,224,3136085,3056030001,Borough Park                                                               ,"(40.641157, -73.993482)",1/31/18,2018
P.S. 298 - QUEENS,Q,24,New,76850000,CAP,Q298,50-51 98TH STREET,Queens,11368,QUEENS   ,40.742167,-73.864109,4,21,44302,4046832,4018910001,Corona                                                                     ,"(40.742167, -73.864109)",1/31/18,2018
HS OF GRAPHIC COMM. ARTS (VOC),M,2,PLANYC BOILERS CONVERSION/CLIMATE CONTROL,8627000,CIP,M625,439 WEST 49 STREET,Manhattan,10019,MANHATTAN,40.76337,-73.990593,4,3,127,1026646,1010590015,Clinton                                                                    ,"(40.76337, -73.990593)",1/31/18,2018
I.S. 459 - BRONX,X,10,REPAIR STEPS & VPS/ROOFS/PARTIAL ACCESSIBILITY,1775000,CIP,X115,120 EAST 184 STREET,Bronx,10468,BRONX    ,40.859752,-73.900161,5,14,23703,2013899,2031720046,Fordham South                                                              ,"(40.859752, -73.900161)",1/31/18,2018
P.S. 112 - BROOKLYN,K,20,TCU REMOVAL - PLAYGROUND REDEVELOPMENT,1578914,CIP,K112,7115 15 AVENUE,Brooklyn,11228,BROOKLYN ,40.61978,-74.000792,11,43,190,3157760,3061800001,Bensonhurst West                                                           ,"(40.61978, -74.000792)",1/31/18,2018
P.S. 99 - QUEENS,Q,28,FY17 RESO A ROOM CONVERSIONS/PARTITIONING,182000,CIP,Q099,82-37 KEW GARDENS ROAD,Queens,11415,QUEENS   ,40.711419,-73.828628,9,29,216,4080168,4033600001,Kew Gardens                                                                ,"(40.711419, -73.828628)",1/31/18,2018
WILLIAM MAXWELL VOC HS - K,K,19,ENY LIBRARY UPGRADE,437900,CIP,K660,145 PENNSYLVANIA AVENUE,Brooklyn,11207,BROOKLYN ,40.674135,-73.89643,5,37,1144,3083660,3037040001,East New York (Pennsylvania Ave)                                           ,"(40.674135, -73.89643)",1/31/18,2018
P.S. 106 - QUEENS,Q,27,DEMOLITION & PAVED AREA/TCU REMOVAL PLAYGROUND RED,2482000,CIP,Q806,180 BEACH 35 STREET,Queens,11691,QUEENS   ,40.593779,-73.767199,14,31,992,4441244,4158610035,Hammels-Arverne-Edgemere                                                   ,"(40.593779, -73.767199)",1/31/18,2018
MARTIN VAN BUREN HS - QUEENS,Q,26,RENEWAL SCHOOL BASED HEALTH CENTER,1829000,CIP,Q435,230-17 HILLSIDE AVENUE,Queens,11427,QUEENS   ,40.733066,-73.738756,13,23,1301,4166101,4079300002,Bellerose                                                                  ,"(40.733066, -73.738756)",1/31/18,2018
P.S. 1 - STATEN ISLAND,R,31,EXTERIOR MASONRY/PARAPETS/ROOFS/WINDOWS,11891000,CIP,R001,58 SUMMIT STREET,Staten Island,10307,STATEN IS,40.509037,-74.244118,3,51,24401,5107854,5078980001,Charleston-Richmond Valley-Tottenville                                     ,"(40.509037, -74.244118)",1/31/18,2018
TELECOM ARTS & TECHNOLOGY H.S.,K,20,C OF O,7710450,CIP,K485,350 67 STREET,Brooklyn,11220,BROOKLYN ,40.637282,-74.023849,10,43,70,3144482,3058500030,Bay Ridge                                                                  ,"(40.637282, -74.023849)",1/31/18,2018
J.H.S. 72 - QUEENS,Q,28,FY17 RESO A LIBRARY UPGRADES,424900,CIP,Q072,133-25 GUY R BREWER BOULEVARD,Queens,11434,QUEENS   ,40.673769,-73.775951,12,28,33402,4270059,4124950270,Springfield Gardens North                                                  ,"(40.673769, -73.775951)",1/31/18,2018
MARBLE HILL INTERNATIONAL HS -,X,10,EXT MASONRY/FLOOD/PARAPETS/ROOFS,10490000,CIP,X475,99 TERRACE VIEW AVENUE,Bronx,10463,BRONX    ,40.877105,-73.912256,8,10,309,1064532,1022150080,Marble Hill-Inwood                                                         ,"(40.877105, -73.912256)",1/31/18,2018
P.S. 377 - BROOKLYN,K,32,LL 41-16 COMPLIANCE,44175.77,CIP,K377,200 WOODBINE STREET,Brooklyn,11221,BROOKLYN ,40.694018,-73.915263,4,37,415,3076784,3033600001,Bushwick South                                                             ,"(40.694018, -73.915263)",1/31/18,2018
P.S. 307 - BROOKLYN,K,13,RENOVATION OF CLASSROOM 332,255965,CIP,K307,209 YORK STREET,Brooklyn,11201,BROOKLYN ,40.701343,-73.982314,2,33,21,3000158,3000560007,DUMBO-Vinegar Hill-Downtown Brooklyn-Boerum Hill                           ,"(40.701343, -73.982314)",1/31/18,2018
P.S. 101 - BROOKLYN,K,21,Addition,65999000,CAP,K101,2360 BENSON AVENUE,Brooklyn,11214,BROOKLYN ,40.597863,-73.991693,11,47,302,3185973,3068750032,Bensonhurst East                                                           ,"(40.597863, -73.991693)",1/31/18,2018
P.S. 60 - STATEN ISLAND,R,31,FY17 RESO A AUDITORIUM UPGRADE,269000,CIP,R060,55 MERRILL AVENUE,Staten Island,10314,STATEN IS,40.610087,-74.162216,2,50,29104,5031151,5015800044,New Springville-Bloomfield-Travis                                          ,"(40.610087, -74.162216)",1/31/18,2018
P.S. 104 - QUEENS,Q,27,BOILER REPLACEMENT/CLIMATE CONTROL/HVAC,6717000,CIP,Q104,26-01 MOTT AVENUE,Queens,11691,QUEENS   ,40.608467,-73.764548,14,31,100801,4442313,4156930001,Far Rockaway-Bayswater                                                     ,"(40.608467, -73.764548)",1/31/18,2018
I.S. 75 - STATEN ISLAND,R,31,CHILLER REPLACEMENT,1595000,CIP,R075,455 HUGUENOT AVENUE,Staten Island,10312,STATEN IS,40.54438,-74.197897,3,51,17010,5079651,5060500002,Arden Heights                                                              ,"(40.54438, -74.197897)",1/31/18,2018
P.S. 212 - BROOKLYN,K,21,DEFECTIVE STAIR LANDING,319995,CIP,K212,87 BAY 49 STREET,Brooklyn,11214,BROOKLYN ,40.587616,-73.985948,13,47,314,3187407,3069170001,Gravesend                                                                  ,"(40.587616, -73.985948)",1/31/18,2018
P.S. 95 - BRONX,X,10,DEFECTIVE MASONRY/PARAPETS,7609000,CIP,X095,3961 HILLMAN AVENUE,Bronx,10463,BRONX    ,40.882898,-73.891256,8,11,281,2015472,2032520182,Van Cortlandt Village                                                      ,"(40.882898, -73.891256)",1/31/18,2018
HS OF BUSINESS - BRONX,X,9,ATHLETIC FIELD RETAINING WALL,1220000,CIP,X410,240 EAST 172 STREET,Bronx,10457,BRONX    ,40.840422,-73.91091,4,16,225,2007806,2028170002,East Concourse-Concourse Village                                           ,"(40.840422, -73.91091)",1/31/18,2018
P.S. 3 - STATEN ISLAND,R,31,ELECTRICAL SERVICE UPGRADE,697180,CIP,R826,6581 HYLAN BLVD,Staten Island,10309,STATEN IS,40.508809,-74.222403,3,51,198,5123970,5076640001,Annadale-Huguenot-Prince's Bay-Eltingville                                 ,"(40.508809, -74.222403)",1/31/18,2018
HS FOR ENVIRONMENTAL STUDIES -,M,2,6TH FLOOR EGRESS/FIRE ALARM,3621000,CIP,M834,444 WEST 56 STREET,Manhattan,10019,MANHATTAN,40.767791,-73.987531,4,3,139,1026841,1010650001,Clinton                                                                    ,"(40.767791, -73.987531)",1/31/18,2018
I.S. 232 - BRONX,X,9,OIL VAULT & STAIRWAY/PIPING/TOILETS/FLOOD,8819000,CIP,X082,1700 MACOMBS ROAD,Bronx,10453,BRONX    ,40.849623,-73.91607,5,14,21502,2008460,2028660070,University Heights-Morris Heights                                          ,"(40.849623, -73.91607)",1/31/18,2018
E NY VOC HS OF TRANSIT TECH.-K,K,19,ENY LIBRARY UPGRADE,420000,CIP,K615,1 WELLS STREET,Brooklyn,11208,BROOKLYN ,40.678276,-73.87596,5,37,1196,3327249,3041550075,East New York                                                              ,"(40.678276, -73.87596)",1/31/18,2018
BAYSIDE HIGH SCHOOL - QUEENS,Q,26,FY16 RESO A ROOM CONVERSIONS / PART,647000,CIP,Q405,32-24 CORPORAL KENNEDY STREET,Queens,11361,QUEENS   ,40.771755,-73.780296,11,19,1097,4134578,4060440001,Bayside-Bayside Hills                                                      ,"(40.771755, -73.780296)",1/31/18,2018
M811 SPED - MANHATTAN,M,3,FY17 RESO A PLAYGROUND REDEVELOPMENT,319415,CIP,M841,466 WEST END AVENUE,Manhattan,10024,MANHATTAN,40.786616,-73.979507,7,6,171,1032754,1012300001,Upper West Side                                                            ,"(40.786616, -73.979507)",1/31/18,2018
FRANCIS LEWIS HS - QUEENS,Q,26,WATER PENETRATION,1469000,CIP,Q430,58-20 UTOPIA PKWY,Queens,11365,QUEENS   ,40.740724,-73.79283,11,20,1417,4148763,4068820001,Auburndale                                                                 ,"(40.740724, -73.79283)",1/31/18,2018
JAMES MADISON HS - BROOKLYN,K,22,FY16 RESO A AUDITORIUM UPGRADE,680000,CIP,K425,3787 BEDFORD AVENUE,Brooklyn,11229,BROOKLYN ,40.609912,-73.948512,15,48,642,3182721,3067880001,Madison                                                                    ,"(40.609912, -73.948512)",1/31/18,2018
FRANCIS LEWIS HS ANNEX - QUEEN,Q,78,Demo,2288000,CAP,Q434,58-20 UTOPIA PARKWAY,Queens,11365,QUEENS   ,40.740724,-73.79283,11,20,1417,4148763,4068820001,Auburndale                                                                 ,"(40.740724, -73.79283)",1/31/18,2018
P.S. 198 - MANHATTAN,M,2,WINDOWS/ROOFS/PARAPETS,7852000,CIP,M198,1700 3RD AVENUE,Manhattan,10128,MANHATTAN,40.784826,-73.949611,8,5,15801,1048492,1015240023,Upper East Side-Carnegie Hill                                              ,"(40.784826, -73.949611)",1/31/18,2018
I.S. 144 - BRONX,X,11,PLANYC BOILER CONVERSION/CLIMATE CONTROL,5423000,CIP,X144,2545 GUNTHER AVENUE,Bronx,10469,BRONX    ,40.863735,-73.83607,11,13,310,2053518,2044930001,Allerton-Pelham Gardens                                                    ,"(40.863735, -73.83607)",1/31/18,2018
P.S. 111 - BRONX,X,11,FY16 RESO A AUDITORIUM UPGRADE,729000,CIP,X111,3740 BAYCHESTER AVENUE,Bronx,10466,BRONX    ,40.884343,-73.840254,12,12,484,2065992,2049160001,Eastchester-Edenwald-Baychester                                            ,"(40.884343, -73.840254)",1/31/18,2018
I.S. 125 - QUEENS,Q,24,Addition,83800000,CAP,Q125,46-02 47 AVENUE,Queens,11377,QUEENS   ,40.741131,-73.918945,2,26,235,4052874,4022840006,Hunters Point-Sunnyside-West Maspeth                                       ,"(40.741131, -73.918945)",1/31/18,2018
Q811 SPED - QUEENS,Q,26,LL 41/16 COMPLIANCE,747000,CIP,Q811,61-25 MARATHON PKWY,Queens,11362,QUEENS   ,40.756778,-73.729487,11,23,152902,4173060,4083610001,Douglas Manor-Douglaston-Little Neck                                       ,"(40.756778, -73.729487)",1/31/18,2018
P.S. 205 - QUEENS,Q,26,BOILER/CLIMATE CTRL/FLOOD/MASONRY/ ROOFS/PARAPETS,15560000,CIP,Q205,75-25 BELL BLVD,Queens,11364,QUEENS   ,40.737678,-73.756791,11,23,129103,4164007,4077530001,Oakland Gardens                                                            ,"(40.737678, -73.756791)",1/31/18,2018
NEW DORP HS - STATEN ISLAND,R,31,PARTIAL ACCESSIBILITY,488000,CIP,R435,465 NEW DORP LANE,Staten Island,10306,STATEN IS,40.569393,-74.107737,2,50,11202,5055367,5039300010,New Dorp-Midland Beach                                                     ,"(40.569393, -74.107737)",1/31/18,2018
P.S. 503 - BROOKLYN,K,20,EXTERIOR MASONRY/PARAPETS/ROOFS,4970000,CIP,K314,330 59 STREET,Brooklyn,11220,BROOKLYN ,40.642121,-74.018997,7,38,74,3016258,3008620012,Sunset Park West                                                           ,"(40.642121, -74.018997)",1/31/18,2018
FREDERICK DOUGLASS ACADEMY IV,K,16,FULL PROGRAM ACCESSIBILITY/LOW VOLTAGE ELECTRICAL,6750000,CIP,K026,1014 LAFAYETTE AVENUE,Brooklyn,11221,BROOKLYN ,40.692126,-73.931731,3,36,291,3393805,3016160001,Stuyvesant Heights                                                         ,"(40.692126, -73.931731)",1/31/18,2018
X721 SPED - BRONX,X,11,PLANYC BOILER CNVRSN/PLANYC CLIMATE CTRL,5390630,CIP,X722,2697 WESTCHESTER AVENUE,Bronx,10461,BRONX    ,40.842289,-73.838949,11,13,284,2045725,2041330200,Van Nest-Morris Park-Westchester Square                                    ,"(40.842289, -73.838949)",1/31/18,2018
P.S. 36 - BRONX,X,8,FULL PROGRAM ACCESSIBILITY,6900000,CIP,X036,1070 CASTLE HILL AVENUE,Bronx,10472,BRONX    ,40.829344,-73.850428,9,18,78,2026706,2038170001,Westchester-Unionport                                                      ,"(40.829344, -73.850428)",1/31/18,2018
M000 - MANHATTAN,M,2,FY17 RESO A GREEN ROOF,200000,CIP,M323,75 MORTON STREET,Manhattan,10014,MANHATTAN,40.730999,-74.007191,2,3,69,1010407,1006030049,West Village                                                               ,"(40.730999, -74.007191)",1/31/18,2018
P.S. 746 - BROOKLYN,K,20,New,92747000,CAP,K746,256 59TH STREET,Brooklyn,11220,BROOKLYN ,40.643337,-74.021011,7,38,22,3016235,3008610029,Sunset Park West                                                           ,"(40.643337, -74.021011)",1/31/18,2018
THE RIVERSIDE SCHOOL - MANHATT,M,3,New,74425721,CAP,M342,300 WEST 61ST STREET,Manhattan,10023,MANHATTAN,40.772883,-73.989609,7,6,151,1088870,1011717510,Lincoln Square                                                             ,"(40.772883, -73.989609)",1/31/18,2018
P.S. 160 - QUEENS,Q,28,FY17 RESO A AUDITORIUM UPGRADE,207777,CIP,Q160,109-59 INWOOD STREET,Queens,11435,QUEENS   ,40.688103,-73.800415,12,28,196,4258143,4119420302,South Jamaica                                                              ,"(40.688103, -73.800415)",1/31/18,2018
I.S. 821 - BROOKLYN,K,15,FY17 RESO A SCIENCE LAB/FY17 RESO A SCIENCE LAB,817200,CIP,K136,4004 4TH AVENUE,Brooklyn,11232,BROOKLYN ,40.651977,-74.006862,7,38,82,3010580,3007130020,Sunset Park West                                                           ,"(40.651977, -74.006862)",1/31/18,2018
P.S. 131 - QUEENS,Q,29,ROOFS/EXT MASONRY/PARAPETS,5688000,CIP,Q131,170-45 84TH AVENUE,Queens,11432,QUEENS   ,40.716617,-73.794637,8,24,456,4211112,4098750001,Briarwood-Jamaica Hills                                                    ,"(40.716617, -73.794637)",1/31/18,2018
P.S. 11 - QUEENS,Q,30,Addition,91875000,CAP,Q011,54-25 SKILLMAN AVENUE,Queens,11377,QUEENS   ,40.745244,-73.90872,2,26,251,4552510,4012390001,Woodside                                                                   ,"(40.745244, -73.90872)",1/31/18,2018
P.S. 345 - BROOKLYN,K,19,PLANYC PLAYGROUND,867000,CIP,K345,111 BERRIMAN STREET,Brooklyn,11208,BROOKLYN ,40.676129,-73.880337,5,37,1192,3088734,3039900001,East New York                                                              ,"(40.676129, -73.880337)",1/31/18,2018
GREGORIO LUPERON PREP. SCHOOL,M,6,EXTERIOR MASONRY/FLASHING,534786,CIP,M876,501 WEST 165 STREET,Manhattan,10032,MANHATTAN,40.838167,-73.938642,12,10,251,1085733,1021230045,Washington Heights South                                                   ,"(40.838167, -73.938642)",1/31/18,2018
P.S. 75 - MANHATTAN,M,3,TEMPORARY BOILER,250000,CIP,M075,735 WEST END AVENUE,Manhattan,10025,MANHATTAN,40.795157,-73.973292,7,6,183,1034190,1012530065,Upper West Side                                                            ,"(40.795157, -73.973292)",1/31/18,2018
P.S. 16 - STATEN ISLAND,R,31,ELECTRICAL SYSTEMS,1240000,CIP,R016,80 MONROE AVENUE,Staten Island,10301,STATEN IS,40.6397,-74.079141,1,49,11,5000291,5000180015,West New Brighton-New Brighton-St. George                                  ,"(40.6397, -74.079141)",1/31/18,2018
GRAMERCY ARTS HS - MANHATTAN,M,2,ELECTRICAL SYSTEMS/PA SYSTEM,6221000,CIP,M460,40 IRVING PLACE,Manhattan,10003,MANHATTAN,40.735494,-73.987659,6,2,50,1017828,1008720057,Gramercy                                                                   ,"(40.735494, -73.987659)",1/31/18,2018
I.S. 167 - MANHATTAN,M,2,FACADE DAMAGE/SITE WORK/FLOOD/PARAPET/WINDOWS/ROOF,7547888,CIP,M167,220 EAST 76 STREET,Manhattan,10021,MANHATTAN,40.77205,-73.958066,8,4,134,1044058,1014300005,Lenox Hill-Roosevelt Island                                                ,"(40.77205, -73.958066)",1/31/18,2018
P.S. 50 - QUEENS,Q,28,Addition,55182000,CAP,Q050,143-26 101 AVENUE,Queens,11435,QUEENS   ,40.695238,-73.807364,12,28,206,4214461,4100240012,Jamaica                                                                    ,"(40.695238, -73.807364)",1/31/18,2018
J.H.S. 52 - MANHATTAN,M,6,FLOOD ELIMINATION/EXTERIOR MASONRY,2559000,CIP,M052,650 ACADEMY STREET,Manhattan,10034,MANHATTAN,40.866053,-73.924835,12,10,291,1076776,1022330020,Marble Hill-Inwood                                                         ,"(40.866053, -73.924835)",1/31/18,2018
P.S. 290 - BROOKLYN,K,19,ROOFS/WINDOWS/PARAPETS,2880000,CIP,K290,135 SCHENCK AVENUE,Brooklyn,11207,BROOKLYN ,40.67789,-73.889758,5,37,1198,3087821,3039490018,East New York                                                              ,"(40.67789, -73.889758)",1/31/18,2018
JULIA RICHMAN H.S.,M,2,LL 41-16 COMPLIANCE,38865.86,CIP,M480,317 EAST 67 STREET,Manhattan,10065,MANHATTAN,40.765359,-73.960059,8,5,118,1083343,1014420001,Lenox Hill-Roosevelt Island                                                ,"(40.765359, -73.960059)",1/31/18,2018
I.S. 125 - BRONX,X,8,LIGHTING REPLACEMENT (DCAS),1300019,CIP,X125,1111 PUGSLEY AVENUE,Bronx,10472,BRONX    ,40.829232,-73.856734,9,18,4001,2025717,2037900040,Soundview-Bruckner                                                         ,"(40.829232, -73.856734)",1/31/18,2018
P.S. 194 - MANHATTAN,M,5,FY17 RESO A LIBRARY UPGRADES,264500,CIP,M194,244 WEST 144 STREET,Manhattan,10030,MANHATTAN,40.821535,-73.940941,10,9,232,1060432,1020290011,Central Harlem North-Polo Grounds                                          ,"(40.821535, -73.940941)",1/31/18,2018
MIDDLE SCHOOL FOR ART & PHILOS,K,18,PLANYC BOILER CONVERSION/CLIMATE CONTROL,7375000,CIP,K252,1084 LENOX ROAD,Brooklyn,11212,BROOKLYN ,40.658295,-73.920109,17,41,886,3101840,3046690037,Rugby-Remsen Village                                                       ,"(40.658295, -73.920109)",1/31/18,2018
P.S. 165 - MANHATTAN,M,3,EXT MASONRY/ROOFS,6233477,CIP,M165,234 WEST 109 STREET,Manhattan,10025,MANHATTAN,40.802917,-73.965613,7,7,195,1056676,1018800013,Morningside Heights                                                        ,"(40.802917, -73.965613)",1/31/18,2018
P.S. 81 - BRONX,X,10,WINDOW/ROOFS/EXT MASONRY/FLOOD,3147559,CIP,X081,5550 RIVERDALE AVENUE,Bronx,10471,BRONX    ,40.903553,-73.905229,8,11,337,2084806,2058501550,North Riverdale-Fieldston-Riverdale                                        ,"(40.903553, -73.905229)",1/31/18,2018
PERFORMING ARTS AND TECH. HS -,K,19,FY14 RESO A GYMNASIUM UPGRADE,1032000,CIP,K435,400 PENNSYLVANIA AVENUE,Brooklyn,11207,BROOKLYN ,40.667456,-73.894747,5,42,1156,3084440,3037880001,East New York (Pennsylvania Ave)                                           ,"(40.667456, -73.894747)",1/31/18,2018
P.S. 109 - BROOKLYN,K,22,DEFECTIVE GYMNASIUM WALLS/ROOFS/PARAPETS,3783000,CIP,K395,1001 EAST 45 STREET,Brooklyn,11203,BROOKLYN ,40.636455,-73.933582,17,45,836,3114526,3050220002,East Flatbush-Farragut                                                     ,"(40.636455, -73.933582)",1/31/18,2018
P.S. 279 - BROOKLYN,K,18,SANDY:INTERIOR/HEAT/ELEC/FLOOD/ELEVATOR/HVAC/FA,21599000,CIP,K279,1070 EAST 104 STREET,Brooklyn,11236,BROOKLYN ,40.644203,-73.892264,18,46,986,3326733,3082300001,Canarsie                                                                   ,"(40.644203, -73.892264)",1/31/18,2018
I.S. 53 - QUEENS,Q,27,CONCRETE/FLOOD/PARAPETS/ ROOFS/WINDOWS/C OF O,17300000,CIP,Q053,10-45 NAMEOKE STREET,Queens,11691,QUEENS   ,40.603622,-73.749097,14,31,103202,4298234,4155570025,Far Rockaway-Bayswater                                                     ,"(40.603622, -73.749097)",1/31/18,2018
P.S. 85 - BRONX,X,10,EXT MASONRY/PARAPETS/ROOFS/SECURITY LIGHTING/FLOOD,9489919,CIP,X085,2400 MARION AVENUE,Bronx,10458,BRONX    ,40.8591,-73.894946,5,15,38302,2011054,2030240021,Fordham South                                                              ,"(40.8591, -73.894946)",1/31/18,2018
P.S. 114 - QUEENS,Q,27,SANDY:INT/HEATING/ELEC/FLOOD/CLIM/PLAYGRND/PIPING,14780000,CIP,Q114,134-01 CRONSTON AVE,Queens,11694,QUEENS   ,40.578261,-73.854403,14,32,928,4305615,4162570001,Breezy Point-Belle Harbor-Rockaway Park-Broad Channel                      ,"(40.578261, -73.854403)",1/31/18,2018
P.S. 143 - QUEENS,Q,24,Addition,87980000,CAP,Q143,34-74 113 STREET,Queens,11368,QUEENS   ,40.755451,-73.855192,3,21,381,4043827,4017560025,North Corona                                                               ,"(40.755451, -73.855192)",1/31/18,2018
I.S. 254 - BRONX,X,10,FACADE/ROOFS,3600000,CIP,X254,2452 WASHINGTON AVENUE,Bronx,10458,BRONX    ,40.858815,-73.890232,6,15,387,2103863,2030580003,Belmont                                                                    ,"(40.858815, -73.890232)",1/31/18,2018
P.S. 161 - BROOKLYN,K,17,FLOOD ELIMINATION,2198000,CIP,K161,330 CROWN STREET,Brooklyn,11225,BROOKLYN ,40.666181,-73.949013,9,35,319,3034181,3012970026,Crown Heights South                                                        ,"(40.666181, -73.949013)",1/31/18,2018
P.S. 32 - STATEN ISLAND,R,31,WATER INFILTRATION/EXT MASONRY/GYM ROOF,2088000,CIP,R032,232 BARLOW AVENUE,Staten Island,10308,STATEN IS,40.558966,-74.155517,3,51,14608,5070651,5054440012,Great Kills                                                                ,"(40.558966, -74.155517)",1/31/18,2018
J.H.S. 47 (SCH FOR THE DEAF) -,M,2,PARAPETS/WINDOWS/EXTERIOR MASONRY,2654000,CIP,M047,223 EAST 23 STREET,Manhattan,10010,MANHATTAN,40.738548,-73.982455,6,2,64,,,Gramercy                                                                   ,"(40.738548, -73.982455)",1/31/18,2018
P.S. 2 - QUEENS,Q,30,FY15 RESO A ACCESSIBILITY,598025,CIP,Q002,75-10 21 AVENUE,Queens,11370,QUEENS   ,40.770335,-73.894476,1,22,317,4021375,4009710001,Steinway                                                                   ,"(40.770335, -73.894476)",1/31/18,2018
EAST SIDE COMMUNITY SCHOOL,M,1,FIFTH FLOOR CEILING REPLACEMENT,150000,CIP,M060,420 EAST 12 STREET,Manhattan,10009,MANHATTAN,40.729589,-73.982555,3,2,34,1005974,1004390017,East Village                                                               ,"(40.729589, -73.982555)",1/31/18,2018
BROOKLYN FRONTIERS HIGH SCHOOL,K,15,PUBLIC ADDRESS SYSTEM,340927,CIP,K520,112 SCHERMERHORN STREET,Brooklyn,11201,BROOKLYN ,40.690145,-73.989132,2,33,43,3000533,3001690009,DUMBO-Vinegar Hill-Downtown Brooklyn-Boerum Hill                           ,"(40.690145, -73.989132)",1/31/18,2018
SECONDARY SCHOOL FOR LAW - K,K,15,DETERIORATED LEADER AND DRAIN LINES,8985000,CIP,K460,237 7TH AVENUE,Brooklyn,11215,BROOKLYN ,40.669629,-73.979287,6,39,155,3025510,3010820001,Park Slope-Gowanus                                                         ,"(40.669629, -73.979287)",1/31/18,2018
I.S. 259 - BROOKLYN,K,20,CRACKED EXTERIOR MASONRY/ROOFS/PARAPETS,10786000,CIP,K259,7305 FT HAMILTON PKWY,Brooklyn,11228,BROOKLYN ,40.62668,-74.01512,10,43,206,3148031,3059230001,Dyker Heights                                                              ,"(40.62668, -74.01512)",1/31/18,2018
P.S. 170 - BROOKLYN,K,20,CRACKED EXTERIOR MASONRY,2449037,CIP,K170,619 72ND STREET,Brooklyn,11209,BROOKLYN ,40.630031,-74.018878,10,43,134,3146921,3058990001,Bay Ridge                                                                  ,"(40.630031, -74.018878)",1/31/18,2018
P.S. 31 - QUEENS,Q,26,CHIMNEY LINER REPLAC/PLANYC BOILER/CLIMATE/MASONRY,14330000,CIP,Q031,211-45 46 ROAD,Queens,11361,QUEENS   ,40.757064,-73.770122,11,19,1447,4156949,4073160018,Bayside-Bayside Hills                                                      ,"(40.757064, -73.770122)",1/31/18,2018
NEWCOMERS HIGH SCHOOL - Q,Q,30,RPZ VALVES,389000,CIP,Q450,28-01 41ST AVENUE,Queens,11101,QUEENS   ,40.751356,-73.937445,1,26,33,4004874,4004040001,Queensbridge-Ravenswood-Long Island City                                   ,"(40.751356, -73.937445)",1/31/18,2018
P.S. 52 - QUEENS,Q,29,WATER PENETRATION/PARAPETS,1718000,CIP,Q052,178-37 146 TERRACE,Queens,11434,QUEENS   ,40.661122,-73.766733,13,31,320,4285972,4133530020,Springfield Gardens South-Brookville                                       ,"(40.661122, -73.766733)",1/31/18,2018
J.H.S. 194 - QUEENS,Q,25,PLANYC BOILER CNVRSN/PLANYC CLIMATE CTRL,6795000,CIP,Q194,154-60 17 AVENUE,Queens,11357,QUEENS   ,40.78365,-73.807838,7,19,1029,4107342,4047290001,Whitestone                                                                 ,"(40.78365, -73.807838)",1/31/18,2018
I.S. 61 - QUEENS,Q,24,MASONRY/ROOFS/PARAPETS,5890000,CIP,Q061,98-50 50 AVENUE,Queens,11368,QUEENS   ,40.742668,-73.863307,4,21,44302,4046834,4018910032,Corona                                                                     ,"(40.742668, -73.863307)",1/31/18,2018
SUCCESS ACADEMY CHARTER SCHOOL,M,4,INTERIOR STAIRS,2045000,CIP,M099,410 EAST 100 STREET,Manhattan,10029,MANHATTAN,40.785671,-73.942548,11,8,162,1052998,1016930001,East Harlem South                                                          ,"(40.785671, -73.942548)",1/31/18,2018
P.S. 414 - BROOKLYN,K,14,STRUCTURAL STABILIZATION,218481.89,CIP,K019,325 SOUTH 3RD STREET,Brooklyn,11211,BROOKLYN ,40.709647,-73.95465,1,34,527,3063188,3024230001,North Side-South Side                                                      ,"(40.709647, -73.95465)",1/31/18,2018
I.S. 35 - BROOKLYN,K,16,FULL PROGRAM ACCESSIBILITY,8275000,CIP,K035,272 MACDONOUGH STREET,Brooklyn,11233,BROOKLYN ,40.681896,-73.935963,3,36,273,3047054,3016740011,Stuyvesant Heights                                                         ,"(40.681896, -73.935963)",1/31/18,2018
P.S. 95 - BROOKLYN,K,21,PARAPET/ROOFS/EXT MASONRY,4743000,CIP,K095,345 VAN SICKLEN STREET,Brooklyn,11223,BROOKLYN ,40.595698,-73.97518,15,47,398,3192661,3071230066,Gravesend                                                                  ,"(40.595698, -73.97518)",1/31/18,2018
P.S. 128 - QUEENS,Q,24,Addition,31821000,CAP,Q247,69-10 65TH DRIVE,Queens,11379,QUEENS   ,40.715344,-73.886215,5,30,659,4070445,4030270037,Middle Village                                                             ,"(40.715344, -73.886215)",1/31/18,2018
P.S. 246 - BRONX,X,10,ELEVATOR/EXT MSNRY/FLOOD/ PARAPETS/ROOFS/WALL,11448000,CIP,X843,2641 GRAND CONCOURSE,Bronx,10468,BRONX    ,40.865593,-73.894758,7,14,401,2013830,2031680027,Bedford Park-Fordham North                                                 ,"(40.865593, -73.894758)",1/31/18,2018
P.S. 25 - BRONX,X,7,EXTERIOR MASONRY/PARAPETS/ROOFS/WINDOWS,11840000,CIP,X025,811 EAST 149 STREET,Bronx,10455,BRONX    ,40.812619,-73.906063,1,8,79,2004772,2026640001,Melrose South-Mott Haven North                                             ,"(40.812619, -73.906063)",1/31/18,2018
P.S. 68 - BRONX,X,11,WATER INFILTRATION/EXT MASONRY/PAVED AREA-BLACKTOP,2227000,CIP,X068,4011 MONTICELLO AVENUE,Bronx,10466,BRONX    ,40.891732,-73.838471,12,12,426,2067852,2049860081,Woodlawn-Wakefield                                                         ,"(40.891732, -73.838471)",1/31/18,2018
Q721 SPED - QUEENS,Q,24,EXTERIOR MASONRY/ROOFS,4300000,CIP,Q722,57-12 94TH STREET,Queens,11373,QUEENS   ,40.736003,-73.867478,4,25,683,4462647,4018730050,Elmhurst                                                                   ,"(40.736003, -73.867478)",1/31/18,2018
P.S. 236 - BROOKLYN,K,22,FY17 RESO A AUDITORIUM UPGRADE,186000,CIP,K236,6302 AVENUE U,Brooklyn,11234,BROOKLYN ,40.615998,-73.912989,18,46,698,3326821,3084640001,Georgetown-Marine Park-Bergen Beach-Mill Basin                             ,"(40.615998, -73.912989)",1/31/18,2018
BROOKLYN GENERATION SCHOOL - K,K,18,ATHLETIC FIELD - TRACK,1618000,CIP,K516,6565 FLATLANDS AVENUE,Brooklyn,11236,BROOKLYN ,40.633285,-73.916735,18,46,950,3224139,3079980005,Canarsie                                                                   ,"(40.633285, -73.916735)",1/31/18,2018
P.S. 164 - BROOKLYN,K,20,EXT MASONRY/ROOFS/CLIMATE CTRL/PARAPETS,6597000,CIP,K164,4211 14TH AVENUE,Brooklyn,11219,BROOKLYN ,40.637486,-73.985955,12,44,232,3135976,3056000001,Borough Park                                                               ,"(40.637486, -73.985955)",1/31/18,2018
FORDHAM HS FOR THE ARTS - BRON,X,10,FY16 RESO A LIBRARY UPGRADE,1928000,CIP,X435,500 EAST FORDHAM ROAD,Bronx,10458,BRONX    ,40.860043,-73.888267,6,15,387,2011810,2030590001,Belmont                                                                    ,"(40.860043, -73.888267)",1/31/18,2018
P.S. 29 - BRONX,X,7,ROOFS/FLOOD ELIMINATION/EXT MASONRY/PARAPETS,6800100,CIP,X029,758 COURTLANDT AVENUE,Bronx,10451,BRONX    ,40.821515,-73.917279,1,17,69,2001736,2024030001,Melrose South-Mott Haven North                                             ,"(40.821515, -73.917279)",1/31/18,2018
P.S. 312 - BROOKLYN,K,22,WATER PENETRATION,774786,CIP,K312,7103 AVENUE T,Brooklyn,11234,BROOKLYN ,40.621413,-73.908987,18,46,69602,3236665,3083930001,Georgetown-Marine Park-Bergen Beach-Mill Basin                             ,"(40.621413, -73.908987)",1/31/18,2018
BRONX CNTR FOR SCIENCE & MATH,X,9,PLANYC BOILER CONVERSION/PLANYC CLIMATE CTRL,5747000,CIP,X002,1365 FULTON AVENUE,Bronx,10456,BRONX    ,40.833696,-73.902477,3,16,14701,2009617,2029250056,Claremont-Bathgate                                                         ,"(40.833696, -73.902477)",1/31/18,2018
P.S. 83 - MANHATTAN,M,4,FULL PROGRAM ACCESSIBILITY,8585000,CIP,M083,219 EAST 109 STREET,Manhattan,10029,MANHATTAN,40.793194,-73.942548,11,8,180,1052436,1016590012,East Harlem North                                                          ,"(40.793194, -73.942548)",1/31/18,2018
P.S. 70 - BRONX,X,9,FY14 RESO A LIBRARY UPGRADE,425514,CIP,X070,1691 WEEKS AVENUE,Bronx,10457,BRONX    ,40.844253,-73.907616,4,15,22902,2007387,2027930028,Mount Hope                                                                 ,"(40.844253, -73.907616)",1/31/18,2018
P.S. 40 - QUEENS,Q,28,EXTERIOR MASONRY/TCU REMOVAL & PLAYGROUND/FLOOD,9947450,CIP,Q040,109-20 UNION HALL STREET,Queens,11433,QUEENS   ,40.694125,-73.790675,12,28,260,4263341,4121510001,South Jamaica                                                              ,"(40.694125, -73.790675)",1/31/18,2018
P.S./I.S. 338 - BROOKLYN,K,22,New,67683691,CAP,K338,21 HINCKLEY PLACE,Brooklyn,11218,BROOKLYN ,40.644469,-73.971032,12,40,492,3124801,3053420006,Kensington-Ocean Parkway                                                   ,"(40.644469, -73.971032)",1/31/18,2018
P.S. / I.S. 270 - QUEENS,Q,29,DEFECTIVE PARAPETS/EXT MASONRY/ROOFS,5347000,CIP,Q270,233-15 MERRICK BLVD,Queens,11422,QUEENS   ,40.674831,-73.736713,13,31,618,4529511,4129730001,Laurelton                                                                  ,"(40.674831, -73.736713)",1/31/18,2018
P.S. 92 - QUEENS,Q,30,Addition,42410002,CAP,Q292,99-01 34TH AVENUE,Queens,11368,QUEENS   ,40.755418,-73.869017,3,21,377,4042496,4017140018,North Corona                                                               ,"(40.755418, -73.869017)",1/31/18,2018
E NY VOC HS OF TRANSIT TECH.-K,K,19,ENY AUDITORIUM UPGRADE,467000,CIP,K615,1 WELLS STREET,Brooklyn,11208,BROOKLYN ,40.678276,-73.87596,5,37,1196,3327249,3041550075,East New York                                                              ,"(40.678276, -73.87596)",1/31/18,2018
I.S. 218 - BROOKLYN,K,19,WATER PENETRATION/EXT MASONRY,2606000,CIP,K218,370 FOUNTAIN AVENUE,Brooklyn,11208,BROOKLYN ,40.670724,-73.874208,5,42,1118,3095977,3042780001,East New York                                                              ,"(40.670724, -73.874208)",1/31/18,2018
I.S. 243 - BRONX,X,10,ROOFS/PARAPETS/EXT MASONRY/WINDOWS,50553000,CIP,X435,500 EAST FORDHAM ROAD,Bronx,10458,BRONX    ,40.860043,-73.888267,6,15,387,2011810,2030590001,Belmont                                                                    ,"(40.860043, -73.888267)",1/31/18,2018
RICHMOND HILL HS - QUEENS,Q,27,STEEL DETERIORATED COLUMS & COLUMN,1064400,CIP,Q475,89-30 114 STREET,Queens,11418,QUEENS   ,40.695888,-73.833681,9,28,124,4195688,4093210001,Richmond Hill                                                              ,"(40.695888, -73.833681)",1/31/18,2018
I.S. 394 - BROOKLYN,K,17,WATER PENETRATION,884000,CIP,K210,188 ROCHESTER AVENUE,Brooklyn,11213,BROOKLYN ,40.672762,-73.927973,8,36,347,3036289,3013670022,Crown Heights North                                                        ,"(40.672762, -73.927973)",1/31/18,2018
P.S. 12 - QUEENS,Q,24,BOILER REPLACE/ELEC SWITCH UPG/PLANYC CLIMATE CTRL,5887000,CIP,Q012,42-00 72 STREET,Queens,11377,QUEENS   ,40.742633,-73.892805,2,26,483,4031853,4013490028,Elmhurst-Maspeth                                                           ,"(40.742633, -73.892805)",1/31/18,2018
P.S. 74 - STATEN ISLAND,R,31,FY15 RESO A PLAYGROUND REDEVELOPMENT,558000,CIP,R831,211 DANIEL LOW TERRACE,Staten Island,10301,STATEN IS,40.639087,-74.079922,1,49,11,5000290,5000180006,West New Brighton-New Brighton-St. George                                  ,"(40.639087, -74.079922)",1/31/18,2018
FOREST HILLS H.S.,Q,28,CONCRETE PAVED AREAS,3463000,CIP,Q440,67-01 110 STREET,Queens,11375,QUEENS   ,40.729402,-73.845637,6,29,747,4052143,4021890002,Forest Hills                                                               ,"(40.729402, -73.845637)",1/31/18,2018
D75 REPLACEMENT @ 15 FAIRFIELD,R,75,Demo,4767365,CAP,R089,15 FAIRFIELD STREET,Staten Island,10308,STATEN IS,40.56397,-74.150885,3,51,14605,5061911,5045860001,Great Kills                                                                ,"(40.56397, -74.150885)",1/31/18,2018
P.S. 33 - QUEENS,Q,29,ROOF REPAIR/PARAPETS/EXTERIOR MASONRY,8860557,CIP,Q033,91-37 222 STREET,Queens,11428,QUEENS   ,40.727134,-73.735077,13,23,560,4230589,4107560001,Queens Village                                                             ,"(40.727134, -73.735077)",1/31/18,2018
P.S. 124 - BROOKLYN,K,15,FLOOD/ROOFS/PARAPETS/EXT MASONRY,3571475,CIP,K124,515 4TH AVENUE,Brooklyn,11215,BROOKLYN ,40.667545,-73.991046,6,39,141,3023391,3010340001,Park Slope-Gowanus                                                         ,"(40.667545, -73.991046)",1/31/18,2018
LIBERTY AVENUE MIDDLE SCHOOL,K,19,ENY AUDITORIUM UPGRADE,360000,CIP,K302,350 LINWOOD STREET,Brooklyn,11208,BROOKLYN ,40.677104,-73.883433,5,37,1170,3088357,3039690001,East New York                                                              ,"(40.677104, -73.883433)",1/31/18,2018
P.S. 163 - QUEENS,Q,25,Addition,43834000,CAP,Q163,159-01 59 AVENUE,Queens,11365,QUEENS   ,40.740565,-73.809131,7,20,1215,4146042,4067260070,Queensboro Hill                                                            ,"(40.740565, -73.809131)",1/31/18,2018
MIDWOOD HS - BROOKLYN,K,21,CRACKED CONCRETE STRUCTURE/FIELD HOUSE,18211000,CIP,K406,1124 EAST 17 STREET,Brooklyn,11210,BROOKLYN ,40.622641,-73.958988,14,44,768,3000000,3067260087,Midwood                                                                    ,"(40.622641, -73.958988)",1/31/18,2018
P.S. 109 - BRONX,X,9,WATER PENETRATION/ROOF/ PARAPET/MASONRY,3968466,CIP,X109,1771 POPHAM AVENUE,Bronx,10453,BRONX    ,40.851414,-73.918533,5,14,20502,2094549,2028770393,University Heights-Morris Heights                                          ,"(40.851414, -73.918533)",1/31/18,2018
EDUCATIONAL CAMPUS @ 500 19TH,K,15,Lease,15400000,CAP,K280,500 19TH STREET,Brooklyn,11215,BROOKLYN ,40.656944,-73.983115,7,38,1502,3017307,3008890001,Windsor Terrace                                                            ,"(40.656944, -73.983115)",1/31/18,2018
P.S. 50 - MANHATTAN,M,4,EXTERIOR MASONRY/ROOFS/PARAPETS/SITE WALLS,15829000,CIP,M050,433 EAST 100 STREET,Manhattan,10029,MANHATTAN,40.785258,-73.941526,11,8,162,1083933,1016940001,East Harlem South                                                          ,"(40.785258, -73.941526)",1/31/18,2018
WILLIAM C. BRYANT HS - QUEENS,Q,30,TCU REMOVAL & PLAYGROUND REDEVELOPMENT,2499000,CIP,Q445,48-10 31 AVENUE,Queens,11103,QUEENS   ,40.75823,-73.910514,1,26,163,4013655,4007380002,Astoria                                                                    ,"(40.75823, -73.910514)",1/31/18,2018
P.S. 163 - MANHATTAN,M,3,TCU REMOVAL & PLAYGROUND REDEVELOPMENT,2442564,CIP,M163,163 WEST 97 STREET,Manhattan,10025,MANHATTAN,40.794264,-73.968706,7,7,185,1055908,1018520099,Upper West Side                                                            ,"(40.794264, -73.968706)",1/31/18,2018
P.S. 160 - BRONX,X,11,FY17 RESO A PLAYGROUND REDEVELOPMENT,1575000,CIP,X160,4140 HUTCHINSON RIVER PARKWAY EAST,Bronx,10475,BRONX    ,40.864676,-73.824303,10,12,302,2072352,2051350200,Co-op City                                                                 ,"(40.864676, -73.824303)",1/31/18,2018
P.S. 188 - BROOKLYN,K,21,SANDY:INT/HEATING/ELEC/FLOOD/CLIMATE/VENT/FA,13757000,CIP,K188,3314 NEPTUNE AVENUE,Brooklyn,11224,BROOKLYN ,40.577217,-74.000194,13,47,328,3188726,3070060001,Seagate-Coney Island                                                       ,"(40.577217, -74.000194)",1/31/18,2018
K753 SPED - BROOKLYN,K,13,PLANYC BOILER CNVRSN/PLANYC CLIMATE CTRL,4827000,CIP,K085,510 CLERMONT AVENUE,Brooklyn,11238,BROOKLYN ,40.682533,-73.968769,2,35,179,3057521,3020080001,Fort Greene                                                                ,"(40.682533, -73.968769)",1/31/18,2018
M721 SPED - MANHATTAN,M,2,REINFORCE CINDER/FLOORS/ACCESSIBLITY/ELEC UPG/FA,6142800,CIP,M641,16 CLARKSON STREET,Manhattan,10014,MANHATTAN,40.729412,-74.006148,2,3,67,1009757,1005810054,West Village                                                               ,"(40.729412, -74.006148)",1/31/18,2018
Q811 SPED - QUEENS,Q,26,PLANYC BOILER CNVRSN/PLANYC CLIMATE CTRL,5680000,CIP,Q811,61-25 MARATHON PKWY,Queens,11362,QUEENS   ,40.756778,-73.729487,11,23,152902,4173060,4083610001,Douglas Manor-Douglaston-Little Neck                                       ,"(40.756778, -73.729487)",1/31/18,2018
WASHINGTON IRVING HS - MANHATT,M,2,EXT. MASONRY/ROOF/PARAPET/ FLOOD ELIM./WINDOWS/GYM,43221000,CIP,M460,40 IRVING PLACE,Manhattan,10003,MANHATTAN,40.735494,-73.987659,6,2,50,1017828,1008720057,Gramercy                                                                   ,"(40.735494, -73.987659)",1/31/18,2018
K077 SPED - BROOKLYN,K,23,ROOFS/FLOOD/PARAPETS/EXT MASONRY/WINDOWS/LEAD SVC,6927000,CIP,K178,2163 DEAN STREET,Brooklyn,11233,BROOKLYN ,40.675024,-73.915778,16,41,303,3038718,3014400056,Ocean Hill                                                                 ,"(40.675024, -73.915778)",1/31/18,2018
I.S. 98 - BRONX,X,12,STH SBHC,2177000,CIP,X098,1619 BOSTON RD,Bronx,10460,BRONX    ,40.8359,-73.890458,3,17,155,2009867,2029390093,Crotona Park East                                                          ,"(40.8359, -73.890458)",1/31/18,2018
P.S. 303 - QUEENS,Q,28,Demo,5183000,CAP,Q003,108-55 69TH AVENUE,Queens,11375,QUEENS   ,40.725098,-73.845091,6,29,739,4052265,4022180021,Forest Hills                                                               ,"(40.725098, -73.845091)",1/31/18,2018
P.S. 156 - QUEENS,Q,29,TCU REMOVAL/PLAYGROUND REDEVELOPMENT,3275000,CIP,Q156,229-02 137 AVENUE,Queens,11413,QUEENS   ,40.673069,-73.743173,13,31,646,4283015,4131700012,Laurelton                                                                  ,"(40.673069, -73.743173)",1/31/18,2018
P.S. 212 - BROOKLYN,K,21,EXT MASONRY - WATER PENETRATION/PARAPETS/ROOFS/WIN,12527000,CIP,K212,87 BAY 49 STREET,Brooklyn,11214,BROOKLYN ,40.587616,-73.985948,13,47,314,3187407,3069170001,Gravesend                                                                  ,"(40.587616, -73.985948)",1/31/18,2018
YOUNG SCHOLAR'S ACADEMY - BROO,K,16,STRUCTURAL DEFECTS/EXT MASONRY,3777000,CIP,K304,280 HART STREET,Brooklyn,11206,BROOKLYN ,40.694086,-73.940744,3,36,281,3049420,3017730014,Stuyvesant Heights                                                         ,"(40.694086, -73.940744)",1/31/18,2018
I.S. 5 - QUEENS,Q,24,HVAC/PUBLIC ADDRESS SYSTEM,4710000,CIP,Q005,50-40 JACOBUS STREET,Queens,11373,QUEENS   ,40.737718,-73.887429,4,25,489,4454423,4024500017,Elmhurst-Maspeth                                                           ,"(40.737718, -73.887429)",1/31/18,2018
P.S. 143 ANNEX - QUEENS,Q,24,Lease,5972300,CAP,Q908,98-07 38TH AVENUE,Queens,11368,QUEENS   ,40.750246,-73.867825,3,21,409,4043936,4017610035,North Corona                                                               ,"(40.750246, -73.867825)",1/31/18,2018
HERBERT H. LEHMAN HS - X,X,8,SANDY ELEC/HEAT/FLOOD/CLIM/SINK HOLES/PLUMBING,29723000,CIP,X405,3000 EAST TREMONT AVENUE,Bronx,10461,BRONX    ,40.840702,-73.838545,10,13,194,2074045,2053680001,Schuylerville-Throgs Neck-Edgewater Park                                   ,"(40.840702, -73.838545)",1/31/18,2018
P.S. 9 - BRONX,X,10,PLANYC BOILER CNVSN/PLANYC CLIMATE CTRL,6542000,CIP,X009,230 EAST 183 STREET,Bronx,10458,BRONX    ,40.857067,-73.898936,5,15,38301,2013561,2031500010,Fordham South                                                              ,"(40.857067, -73.898936)",1/31/18,2018
P.S. 20 - QUEENS,Q,25,FY16 RESO A SUPPLEMENTAL COOLING,288000,CIP,Q020,142-30 BARCLAY AVENUE,Queens,11355,QUEENS   ,40.758689,-73.824832,7,20,855,4114657,4050470001,Flushing                                                                   ,"(40.758689, -73.824832)",1/31/18,2018
P.S. 128 - MANHATTAN,M,6,PLANYC BOILER CNVSN/PLANYC CLIMATE CTRL,6790000,CIP,M128,560 WEST 169 STREET,Manhattan,10032,MANHATTAN,40.841321,-73.938506,12,10,251,1062994,1021250001,Washington Heights South                                                   ,"(40.841321, -73.938506)",1/31/18,2018
P.S. 142 - MANHATTAN,M,1,PLAY YARD SINKHOLE,2688000,CIP,M142,100 ATTORNEY STREET,Manhattan,10002,MANHATTAN,40.718383,-73.984452,3,1,1402,1004080,1003430001,Lower East Side                                                            ,"(40.718383, -73.984452)",1/31/18,2018
Q009 SPED - QUEENS,Q,24,EXT MSNRY/PARAPET/FLOOD/ ACCESSIBILITY/FIRE ALARM,10840000,CIP,Q009,58-74 57 STREET,Queens,11378,QUEENS   ,40.718935,-73.912208,5,30,535,4059130,4026310106,Maspeth                                                                    ,"(40.718935, -73.912208)",1/31/18,2018
P.S. 32 - BRONX,X,10,EXTERIOR MASONRY/WINDOWS/PARAPETS,6239400,CIP,X032,690 EAST 183 STREET,Bronx,10458,BRONX    ,40.852103,-73.885935,6,15,391,2012409,2030850001,Belmont                                                                    ,"(40.852103, -73.885935)",1/31/18,2018
M.S./H.S. 342 - BRONX,X,10,BOILER FOR SWIMMING,2152000,CIP,X430,2780 RESERVOIR AVENUE,Bronx,10468,BRONX    ,40.870293,-73.898309,7,11,409,2015241,2032470070,Van Cortlandt Village                                                      ,"(40.870293, -73.898309)",1/31/18,2018
P.S. 241 - MANHATTAN,M,3,PLANYC BOILER CONVERSION/CIMATE CONTROL,4697000,CIP,M113,240 WEST 113 STREET,Manhattan,10026,MANHATTAN,40.801689,-73.954908,10,9,216,1055111,1018280015,Central Harlem South                                                       ,"(40.801689, -73.954908)",1/31/18,2018
P.S. 104 - BROOKLYN,K,20,WATER INFILTRATION/FLOOD/PARAPETS/ROOFS,10521000,CIP,K104,9115 5TH AVENUE,Brooklyn,11209,BROOKLYN ,40.618415,-74.028842,10,43,160,3154775,3060880001,Bay Ridge                                                                  ,"(40.618415, -74.028842)",1/31/18,2018
P.S. 55 - BRONX,X,9,MASONRY/WINDOWS/ROOFS/PARAPETS,15821492,CIP,X055,450 ST PAULS PLACE,Bronx,10456,BRONX    ,40.836404,-73.905014,3,16,14702,2009463,2029020001,Claremont-Bathgate                                                         ,"(40.836404, -73.905014)",1/31/18,2018
P.S. 115 - QUEENS,Q,26,PLANYC BOILER CNVRSN/PLANYC CLIMATE CTRL,5544000,CIP,Q115,80-51 261 STREET,Queens,11004,QUEENS   ,40.744099,-73.709845,13,23,157902,4178127,4087170001,Glen Oaks-Floral Park-New Hyde Park                                        ,"(40.744099, -73.709845)",1/31/18,2018
P.S. 219 - BROOKLYN,K,18,WATER INFILTRATION/ROOFS/EXT MASONRY/PARAPETS,18388000,CIP,K219,1060 CLARKSON AVENUE,Brooklyn,11212,BROOKLYN ,40.659288,-73.922919,17,41,886,3101168,3046480001,Rugby-Remsen Village                                                       ,"(40.659288, -73.922919)",1/31/18,2018
THE BROOKLYN SCHOOL FOR SOCIAL,K,32,SCHOOL BASED HEALTH CENTER,1250581.23,CIP,K480,400 IRVING AVENUE,Brooklyn,11237,BROOKLYN ,40.69697,-73.910791,4,37,435,3076908,3033650098,Bushwick North                                                             ,"(40.69697, -73.910791)",1/31/18,2018
P.S. 37 - QUEENS,Q,29,FLOOD/FA/EXT MASONRY/ELEVATOR/PARAPETS/FLOOD,14990000,CIP,Q037,179-37 137 AVENUE,Queens,11434,QUEENS   ,40.67588,-73.758505,12,27,352,4279864,4129930118,St. Albans                                                                 ,"(40.67588, -73.758505)",1/31/18,2018
P.S. 132 - MANHATTAN,M,6,REMOVE OIL TANK - FUEL CONVERSION,968000,CIP,M233,601 WEST 183 STREET,Manhattan,10033,MANHATTAN,40.850592,-73.933043,12,10,271,1063959,1021650069,Washington Heights North                                                   ,"(40.850592, -73.933043)",1/31/18,2018
P.S. 48 - BRONX,X,8,FULL PROGRAM ACCESSIBILITY,9100000,CIP,X048,1290 SPOFFORD AVENUE,Bronx,10474,BRONX    ,40.814425,-73.886953,2,17,93,2006680,2027660001,Hunts Point                                                                ,"(40.814425, -73.886953)",1/31/18,2018
I.S. 265 - BROOKLYN,K,13,PLANYC BOILER CNVRSN/PLANYC CLIMATE CTRL,5359400,CIP,K265,101 PARK AVENUE,Brooklyn,11205,BROOKLYN ,40.696324,-73.97578,2,35,211,3057942,3020280001,Fort Greene                                                                ,"(40.696324, -73.97578)",1/31/18,2018
P.S. 29 - QUEENS,Q,25,FY16 RESO A AUDITORIUM UPGRADE,315000,CIP,Q029,125-10 23 AVENUE,Queens,11356,QUEENS   ,40.778601,-73.843187,7,19,907,4099925,4042290014,College Point                                                              ,"(40.778601, -73.843187)",1/31/18,2018
THE FAMILY SCHOOL - BRONX,X,9,EXTERIOR MASONRY/ROOFS,4391000,CIP,X090,1116 SHERIDAN AVENUE,Bronx,10456,BRONX    ,40.831992,-73.91796,4,16,18102,2002745,2024560100,East Concourse-Concourse Village                                           ,"(40.831992, -73.91796)",1/31/18,2018
P.S. 11 - BRONX,X,9,DEFECTIVE RETAINING WALL & PAVEMENTS,2500000,CIP,X011,1257 OGDEN AVENUE,Bronx,10452,BRONX    ,40.839378,-73.925714,4,16,201,2003519,2025290081,Highbridge                                                                 ,"(40.839378, -73.925714)",1/31/18,2018
P.S./I.S. 338 - BROOKLYN,K,22,Demo,739309,CAP,K338,21 HINCKLEY PLACE,Brooklyn,11218,BROOKLYN ,40.644469,-73.971032,12,40,492,3124801,3053420006,Kensington-Ocean Parkway                                                   ,"(40.644469, -73.971032)",1/31/18,2018
P.S. 80 - STATEN ISLAND,R,31,GAS SERVICE,220108,CIP,R880,715 OCEAN TERRACE,Staten Island,10301,STATEN IS,40.608517,-74.102078,2,50,177,5113169,5006830001,Todt Hill-Emerson Hill-Heartland Village-Lighthouse Hill                   ,"(40.608517, -74.102078)",1/31/18,2018
THE INTERNATIONAL HS - BROOKLY,K,17,MASONRY/WINDOWS/PARAPETS/ROOFS/FLOOD ELIMINAITON,20937000,CIP,K440,883 CLASSON AVENUE,Brooklyn,11225,BROOKLYN ,40.670349,-73.961695,9,35,213,3029686,3011870001,Crown Heights South                                                        ,"(40.670349, -73.961695)",1/31/18,2018
P.S. 223 - QUEENS,Q,27,WINDOWS/EXT MASONRY/PARAPETS,4565000,CIP,Q223,125-20 SUTPHIN BLVD,Queens,11434,QUEENS   ,40.674519,-73.789399,12,28,18401,4261713,4120510001,Baisley Park                                                               ,"(40.674519, -73.789399)",1/31/18,2018
COAL. SCHOOL FOR SOCIAL CHANGE,M,4,FLOOD ELIMINATION/EXTERIOR MASONRY,995000,CIP,M045,2351 1ST AVENUE,Manhattan,10035,MANHATTAN,40.798884,-73.933319,11,8,194,1054786,1017970100,East Harlem North                                                          ,"(40.798884, -73.933319)",1/31/18,2018
SUSAN E. WAGNER HS - STATEN IS,R,31,EXT DOORS/EXT MASONRY/WINDOWS/PARAPETS/ROOFS,28898919,CIP,R460,1200 MANOR ROAD,Staten Island,10314,STATEN IS,40.596803,-74.124227,2,50,181,5146639,5009550100,Todt Hill-Emerson Hill-Heartland Village-Lighthouse Hill                   ,"(40.596803, -74.124227)",1/31/18,2018
P.S. 66 - QUEENS,Q,27,Addition,27737773,CAP,Q066,85-11 102 STREET,Queens,11418,QUEENS   ,40.697836,-73.846558,9,32,24,4191497,4091830001,Richmond Hill                                                              ,"(40.697836, -73.846558)",1/31/18,2018
BROOKLYN TECH HS - K,K,13,LOW VOLT ELEC SYS/KITCHEN FIRE SUPRESSION SYS,4291000,CIP,K430,29 FT GREENE PLACE,Brooklyn,11217,BROOKLYN ,40.688834,-73.976905,2,35,33,3058752,3020980013,Fort Greene                                                                ,"(40.688834, -73.976905)",1/31/18,2018
JAMES MADISON HS - BROOKLYN,K,22,SWIMMING POOL,5779000,CIP,K425,3787 BEDFORD AVENUE,Brooklyn,11229,BROOKLYN ,40.609912,-73.948512,15,48,642,3182721,3067880001,Madison                                                                    ,"(40.609912, -73.948512)",1/31/18,2018
J.H.S. 157 - QUEENS,Q,28,FY16 RESO A ROOM CONVERSIONS / PART,229500,CIP,Q157,63-55 102ND STREET,Queens,11374,QUEENS   ,40.732289,-73.853825,6,29,721,4442846,4021260014,Forest Hills                                                               ,"(40.732289, -73.853825)",1/31/18,2018
AVIATION HS - QUEENS,Q,24,FUEL FIRE/ROOFS/PARAPETS/MSNRY/ FLOOD/GYM UPG/WIN,17941252,CIP,Q610,45-30 36 STREET,Queens,11101,QUEENS   ,40.743509,-73.929076,2,26,179,4436685,4002260001,Hunters Point-Sunnyside-West Maspeth                                       ,"(40.743509, -73.929076)",1/31/18,2018
P.S. 235 - BROOKLYN,K,18,TCU REMOVAL AND PLAYGROUND,2000000,CIP,K235,525 LENOX ROAD,Brooklyn,11203,BROOKLYN ,40.654704,-73.941089,17,41,814,3107846,3048440001,East Flatbush-Farragut                                                     ,"(40.654704, -73.941089)",1/31/18,2018
FREDERICK DOUGLASS ACADEMY VI,Q,27,MSNRY/ROOFS/WINDOWS/PARAPETS/NATATORIUM STRUC REPR,21377000,CIP,Q465,8-21 BAY 25 STREET,Queens,11691,QUEENS   ,40.60201,-73.762795,14,31,100802,4300730,4157360001,Far Rockaway-Bayswater                                                     ,"(40.60201, -73.762795)",1/31/18,2018
P.S. 375 - BROOKLYN,K,17,PLANYC BOILER CNVRSN/PLANYC CLIMATE CTRL,6238000,CIP,K320,46 MCKEEVER PLACE,Brooklyn,11225,BROOKLYN ,40.665035,-73.959031,9,35,325,3034356,3013010001,Crown Heights South                                                        ,"(40.665035, -73.959031)",1/31/18,2018
WASHINGTON IRVING H.S.,M,2,WATER STORAGE TANK,1189512,CIP,M460,40 IRVING PLACE,Manhattan,10003,MANHATTAN,40.735494,-73.987659,6,2,50,1017828,1008720057,Gramercy                                                                   ,"(40.735494, -73.987659)",1/31/18,2018
BRONX HS FOR THE VISUAL ARTS -,X,11,COMPLETION OF PHASE II MERCY COLLEGE,892000,CIP,X839,2040 ANTIN PLACE,Bronx,10462,BRONX    ,40.851405,-73.865036,11,13,228,2048811,2042900048,Pelham Parkway                                                             ,"(40.851405, -73.865036)",1/31/18,2018
P.S. 41 - BRONX,X,11,PLANYC BOILER CONVERSION/CLIMATE CONTROL,5484000,CIP,X041,3352 OLINVILLE AVENUE,Bronx,10467,BRONX    ,40.874313,-73.868157,12,12,374,2056898,2046240015,Williamsbridge-Olinville                                                   ,"(40.874313, -73.868157)",1/31/18,2018
I.S. 136 - BROOKLYN,K,15,FY17 RESO A AUDITORIUM UPGRADE,148800,CIP,K136,4004 4TH AVENUE,Brooklyn,11232,BROOKLYN ,40.651977,-74.006862,7,38,82,3010580,3007130020,Sunset Park West                                                           ,"(40.651977, -74.006862)",1/31/18,2018
I.S. 34 - STATEN ISLAND,R,31,FULL PROGRAM ACCESSIBILITY/FIRE ALARM SYSTEM,11177000,CIP,R034,528 ACADEMY AVE,Staten Island,10307,STATEN IS,40.508284,-74.243428,3,51,24401,5088090,5078940001,Charleston-Richmond Valley-Tottenville                                     ,"(40.508284, -74.243428)",1/31/18,2018
BERGTRAUM HS - MANHATTAN,M,2,SCIENCE LAB UPGRADE/FIRE ALARM SYSTEMS,8097230,CIP,M520,411 PEARL STREET,Manhattan,10038,MANHATTAN,40.711442,-74.000851,1,1,29,1001388,1001130100,Chinatown                                                                  ,"(40.711442, -74.000851)",1/31/18,2018
P.S. 225 - BROOKLYN,K,21,FLOOD ELMNTN/ROOFS/EXTERIOR MASONRY/PARAPETS,8677000,CIP,K225,1075 OCEAN VIEW AVENUE,Brooklyn,11235,BROOKLYN ,40.579737,-73.956329,13,48,61004,3245498,3087120056,Brighton Beach                                                             ,"(40.579737, -73.956329)",1/31/18,2018
I.S. 244 - BRONX,X,10,PLANYC BOILER/PLANYC CLIMATE CTRL,6969000,CIP,X143,120 WEST 231 STREET,Bronx,10463,BRONX    ,40.875911,-73.901099,8,14,273,2015547,2032530141,Van Cortlandt Village                                                      ,"(40.875911, -73.901099)",1/31/18,2018
M.S. 354 - BROOKLYN,K,17,PLANYC BOILER CONVERSION/PLANYC CLIMATE CONTROL,6409024,CIP,K390,1224 PARK PLACE,Brooklyn,11213,BROOKLYN ,40.672713,-73.936924,8,36,343,3036405,3013700029,Crown Heights North                                                        ,"(40.672713, -73.936924)",1/31/18,2018
URBN ASSY SCHL CRIM JUSTICE -,K,20,SCIENCE LAB UPGRADE,1218000,CIP,K223,4200 16 AVENUE,Brooklyn,11204,BROOKLYN ,40.634875,-73.981528,12,44,230,3125676,3053620021,Borough Park                                                               ,"(40.634875, -73.981528)",1/31/18,2018
I.S. 349 - BROOKLYN,K,32,ELECTRICAL SYSTEMS,784000,CIP,K111,35 STARR STREET,Brooklyn,11221,BROOKLYN ,40.70069,-73.927481,4,34,423,3072497,3031850001,Bushwick South                                                             ,"(40.70069, -73.927481)",1/31/18,2018
P.S. 315 - BROOKLYN,K,22,LOW VOLTAGE ELECTRICAL SYSTEM,1243000,CIP,K152,725 EAST 23 STREET,Brooklyn,11210,BROOKLYN ,40.632562,-73.954724,14,45,772,3205780,3075510026,Flatbush                                                                   ,"(40.632562, -73.954724)",1/31/18,2018
P.S. 105 - QUEENS,Q,27,SANDY:HEATING/ELEC/FLD/AUD/ PIPING/HVAC/INT/PAVED,21198000,CIP,Q105,420 BEACH 51 STREET,Queens,11691,QUEENS   ,40.595779,-73.781876,14,31,97203,4302397,4159740003,Hammels-Arverne-Edgemere                                                   ,"(40.595779, -73.781876)",1/31/18,2018
NORMAN THOMAS HS - MANHATTAN,M,2,SCIENCE LAB,1359000,CIP,M620,111 EAST 33 STREET,Manhattan,10016,MANHATTAN,40.746176,-73.981241,5,2,72,1087537,1008897501,Murray Hill-Kips Bay                                                       ,"(40.746176, -73.981241)",1/31/18,2018
P.S.15 - BRONX,X,10,WATER PENETRATION,967000,CIP,X015,2195 ANDREWS AVENUE,Bronx,10453,BRONX    ,40.85881,-73.909746,7,14,255,2096013,2032240009,Kingsbridge Heights                                                        ,"(40.85881, -73.909746)",1/31/18,2018
P.S. 214 - BROOKLYN,K,19,TCU REMOVAL AND PLAYGROUND REDEVELOPMENT,2931500,CIP,K214,2944 PITKIN AVENUE,Brooklyn,11208,BROOKLYN ,40.676513,-73.863151,5,37,1202,3095254,3042430001,Cypress Hills-City Line                                                    ,"(40.676513, -73.863151)",1/31/18,2018
P.S. 137 - BROOKLYN,K,23,EXTERIOR MASONRY/ROOFS,4274979,CIP,K137,121 SARATOGA AVENUE,Brooklyn,11233,BROOKLYN ,40.682458,-73.917088,16,41,373,3040878,3015100001,Ocean Hill                                                                 ,"(40.682458, -73.917088)",1/31/18,2018
P.S. 139 - QUEENS,Q,28,WATER PENETRATION/ROOFS,1456000,CIP,Q139,93-06 63 DRIVE,Queens,11374,QUEENS   ,40.72814,-73.863582,6,29,693,4072457,4030950050,Rego Park                                                                  ,"(40.72814, -73.863582)",1/31/18,2018
I.S. 145 - QUEENS,Q,30,PLANYC BOILER CNVRSN/PLANYC CLIMATE CTRL,8497000,CIP,Q145,33-34 80 STREET,Queens,11372,QUEENS   ,40.754661,-73.887112,3,25,285,4442764,4012520001,Jackson Heights                                                            ,"(40.754661, -73.887112)",1/31/18,2018
P.S. 21 - BROOKLYN,K,16,LOW VOLTAGE ELECTRICAL SYSTEMS,1037000,CIP,K021,180 CHAUNCEY STREET,Brooklyn,11233,BROOKLYN ,40.680727,-73.926597,3,36,381,3047914,3016920017,Crown Heights North                                                        ,"(40.680727, -73.926597)",1/31/18,2018
BRONX INTERNATIONAL - BRONX,X,9,TERRA COTTA REPL/FLOOD/ROOFS/WINDOW/INTERIOR SPACE,37337000,CIP,X400,1110 BOSTON RD,Bronx,10456,BRONX    ,40.827642,-73.904473,3,16,135,2004526,2026340001,Morrisania-Melrose                                                         ,"(40.827642, -73.904473)",1/31/18,2018
THOMAS A. EDISON HS - Q,Q,28,FY17 RESO A ROOM CONVERSIONS/PARTITIONING,370000,CIP,Q620,165-65 84 AVENUE,Queens,11432,QUEENS   ,40.715389,-73.800369,8,24,452,4211027,4098670002,Briarwood-Jamaica Hills                                                    ,"(40.715389, -73.800369)",1/31/18,2018
P.S. 14 - BRONX,X,8,Addition,50850000,CAP,X014,3041 BRUCKNER BLVD,Bronx,10461,BRONX    ,40.835779,-73.825735,10,13,184,2072754,2053130092,Schuylerville-Throgs Neck-Edgewater Park                                   ,"(40.835779, -73.825735)",1/31/18,2018
P.S. 333 - QUEENS,Q,27,SANDY NEW A/C CHILLERS,1278870.32,CIP,Q198,3-65 BEACH 56 STREET,Queens,11692,QUEENS   ,40.593967,-73.786182,14,31,97204,4301929,4158940011,Hammels-Arverne-Edgemere                                                   ,"(40.593967, -73.786182)",1/31/18,2018
I.S. 151 - BRONX,X,7,STH SBHC,2137000,CIP,X151,250 EAST 156 STREET,Bronx,10451,BRONX    ,40.82316,-73.921631,4,17,61,2002458,2024430190,East Concourse-Concourse Village                                           ,"(40.82316, -73.921631)",1/31/18,2018
P.S. 41 - STATEN ISLAND,R,31,MAIN ELECTRICAL SERVICE/LOW VOLTAGE ELEC SYSTEM,1649000,CIP,R041,216 CLAWSON STREET,Staten Island,10306,STATEN IS,40.574044,-74.109282,2,50,122,5052791,5036450007,New Dorp-Midland Beach                                                     ,"(40.574044, -74.109282)",1/31/18,2018
P.S. 44 - BRONX,X,12,EXTERIOR MASONRY/PARAPETS/ROOFS,9115000,CIP,X044,1825 PROSPECT AVENUE,Bronx,10457,BRONX    ,40.842084,-73.891116,6,17,36902,2009957,2029490064,East Tremont                                                               ,"(40.842084, -73.891116)",1/31/18,2018
P.S. 19 - BRONX,X,11,Addition,50877000,CAP,X019,4318 KATONAH AVENUE,Bronx,10470,BRONX    ,40.899295,-73.8675,12,11,45102,2019463,2033860001,Woodlawn-Wakefield                                                         ,"(40.899295, -73.8675)",1/31/18,2018
,M,2,,0,CAP,M777,227 WEST 27TH STREET,Manhattan,,MANHATTAN,40.747031,-73.99476,5,3,95,1014251,1007770018,Midtown-Midtown South                                                      ,"(40.747031, -73.99476)",1/31/18,2018
BROOKLYN BRIDGE ACADEMY - K,K,18,WINDOWS,9394000,CIP,K515,6565 FLATLANDS AVENUE,Brooklyn,11236,BROOKLYN ,40.633285,-73.916735,18,46,950,3224139,3079980005,Canarsie                                                                   ,"(40.633285, -73.916735)",1/31/18,2018
P.S. 32 - BROOKLYN,K,15,Addition,74426000,CAP,K032,317 HOYT STREET,Brooklyn,11231,BROOKLYN ,40.680445,-73.991949,6,39,75,3395587,3004370001,Carroll Gardens-Columbia Street-Red Hook                                   ,"(40.680445, -73.991949)",1/31/18,2018
P.S. 102 - QUEENS,Q,24,ADA UPGRADE,2777000,CIP,Q102,55-24 VAN HORN STREET,Queens,11373,QUEENS   ,40.733514,-73.877857,4,25,479,4437597,4028790031,Elmhurst-Maspeth                                                           ,"(40.733514, -73.877857)",1/31/18,2018
P.S. 70 - BRONX,X,9,EXT MASONRY/ROOFS/PARAPETS,6431300,CIP,X070,1691 WEEKS AVENUE,Bronx,10457,BRONX    ,40.844253,-73.907616,4,15,22902,2007387,2027930028,Mount Hope                                                                 ,"(40.844253, -73.907616)",1/31/18,2018
MONROE ACAD FOR VISUAL ARTS -,X,12,BOILER/CLIMATE CONTROL/WATER INFILTRATION,8511800,CIP,X420,1300 BOYNTON AVENUE,Bronx,10472,BRONX    ,40.831601,-73.878912,9,18,56,2027459,2038640001,West Farms-Bronx River                                                     ,"(40.831601, -73.878912)",1/31/18,2018
BARD COLLEGE HS - MANHATTAN,M,1,NON-SANDY:MASONRY/ROOF/PARAPET/SANDY FLOOD/MSNRY,6913000,CIP,M097,525 EAST HOUSTON STREET,Manhattan,10002,MANHATTAN,40.719029,-73.975891,3,2,1002,1004062,1003250025,Lower East Side                                                            ,"(40.719029, -73.975891)",1/31/18,2018
P.S. 100 - QUEENS,Q,27,C OF O,1124600,CIP,Q100,111-11 118 STREET,Queens,11420,QUEENS   ,40.679984,-73.822078,10,28,102,4250416,4116230001,South Ozone Park                                                           ,"(40.679984, -73.822078)",1/31/18,2018
P.S. 321 - BROOKLYN,K,15,FULL PROGRAM ACCESSIBILITY/FIRE ALARM,5581000,CIP,K321,180 7TH AVENUE,Brooklyn,11215,BROOKLYN ,40.67146,-73.977783,6,39,155,3337516,3009710028,Park Slope-Gowanus                                                         ,"(40.67146, -73.977783)",1/31/18,2018
BROOKLYN HS OF THE ARTS - BROO,K,15,ANSUL SYS/FIRE ALARM/MECHANICAL SYS - VENTILATION,5186160,CIP,K655,345 DEAN STREET,Brooklyn,11217,BROOKLYN ,40.683559,-73.98027,2,33,39,3001190,3001920013,DUMBO-Vinegar Hill-Downtown Brooklyn-Boerum Hill                           ,"(40.683559, -73.98027)",1/31/18,2018
P.S. 303 - QUEENS,Q,28,Addition,65987000,CAP,Q003,108-55 69TH AVENUE,Queens,11375,QUEENS   ,40.725098,-73.845091,6,29,739,4052265,4022180021,Forest Hills                                                               ,"(40.725098, -73.845091)",1/31/18,2018
P.S. 97 - BRONX,X,11,Addition,362399,CAP,X097,1375 MACE AVENUE,Bronx,10469,BRONX    ,40.862839,-73.846791,11,13,314,2052739,2044740001,Allerton-Pelham Gardens                                                    ,"(40.862839, -73.846791)",1/31/18,2018
P.S. 63 - QUEENS,Q,27,WATER PENETRATION/EXT MASONRY/PARAPETS/ROOFS,4368000,CIP,Q063,90-15 SUTTER AVENUE,Queens,11417,QUEENS   ,40.67641,-73.846773,10,32,54,4190727,4091550025,Ozone Park                                                                 ,"(40.67641, -73.846773)",1/31/18,2018
ABRAHAM LINCOLN HS - BROOKLYN,K,21,SANDY: INTERIOR/VENT/ELEC/FLOOD/ATHLETIC FIELD,39842974,CIP,K411,2800 OCEAN PARKWAY,Brooklyn,11235,BROOKLYN ,40.581681,-73.967308,13,47,354,3196293,3072540001,West Brighton                                                              ,"(40.581681, -73.967308)",1/31/18,2018
GEORGE WESTINGHOUSE VOC. HS,K,13,PARAPETS/EXTERIOR MASONRY/ROOFS/FLOOD ELIMINATION,9743000,CIP,K580,105 JOHNSON STREET,Brooklyn,11201,BROOKLYN ,40.694926,-73.986015,2,33,13,3348041,3001310001,DUMBO-Vinegar Hill-Downtown Brooklyn-Boerum Hill                           ,"(40.694926, -73.986015)",1/31/18,2018
P.S. 215 - QUEENS,Q,27,SOLAR PANEL,2104380,CIP,Q215,535 BRIAR PLACE,Queens,11691,QUEENS   ,40.5993,-73.758206,14,31,99801,4301194,4157720031,Far Rockaway-Bayswater                                                     ,"(40.5993, -73.758206)",1/31/18,2018
NEW DORP HS - STATEN ISLAND,R,31,FY16 RESO A CAFETERIA/MULTIPURPOSE,1472983.08,CIP,R435,465 NEW DORP LANE,Staten Island,10306,STATEN IS,40.569393,-74.107737,2,50,11202,5055367,5039300010,New Dorp-Midland Beach                                                     ,"(40.569393, -74.107737)",1/31/18,2018
I.S./H.S. 336 - QUEENS,Q,78,Lease,19987000,CAP,Q336,124-06 14TH AVENUE,Queens,11356,QUEENS   ,40.785327,-73.843749,7,19,925,4098406,4040890045,College Point                                                              ,"(40.785327, -73.843749)",1/31/18,2018
P.S. 19 - QUEENS,Q,24,Addition,95491911,CAP,Q019,98-02 ROOSEVELT AVENUE,Queens,11368,QUEENS   ,40.749381,-73.867354,4,21,409,4437176,4016070001,North Corona                                                               ,"(40.749381, -73.867354)",1/31/18,2018
P.S. 212 - BROOKLYN,K,21,FY18 RESO A ACCESSIBILITY,945500,CIP,K212,87 BAY 49 STREET,Brooklyn,10301,K,,,,,,,,,,1/6/22,2022
P.S. 176 - QUEENS,Q,29,Addition,50247000,CAP,Q176,120-45 235 STREET,Queens,11411,QUEENS   ,40.685492,-73.729982,13,27,614,4276382,4128200001,Cambria Heights                                                            ,"(40.685492, -73.729982)",1/31/18,2018
P.S. 3 - BRONX,X,10,DTERIORATED COPING STONES/PAVED AREA CONCRETE/ROOF,3292540,CIP,X003,2100 LAFONTAINE AVE,Bronx,10457,BRONX    ,40.849897,-73.892289,6,15,37504,2099356,2030620043,East Tremont                                                               ,"(40.849897, -73.892289)",1/31/18,2018
P.S. 192 - BROOKLYN,K,20,DETERIORATED WINDOW WELL WALLS/FLOOD/PARAPETS/ROOF,5387000,CIP,K192,4715 18 AVENUE,Brooklyn,11204,BROOKLYN ,40.629303,-73.979995,12,44,476,3128909,3054450001,Borough Park                                                               ,"(40.629303, -73.979995)",1/31/18,2018
K753 SPED - BROOKLYN,K,13,LOW VOLTAGE ELECTRICAL SYSTEM/ANSUL SYSTEM,706260,CIP,K085,510 CLERMONT AVENUE,Brooklyn,11238,BROOKLYN ,40.682533,-73.968769,2,35,179,3057521,3020080001,Fort Greene                                                                ,"(40.682533, -73.968769)",1/31/18,2018
P.S. 145 - MANHATTAN,M,3,PLANYC BOILER CNVSN/PLANYC CLIMATE CTRL,3073000,CIP,M145,150 WEST 105 STREET,Manhattan,10025,MANHATTAN,40.799178,-73.964842,7,7,189,1076625,1018590001,Upper West Side                                                            ,"(40.799178, -73.964842)",1/31/18,2018
P.S. 24 - QUEENS,Q,25,Addition,82451000,CAP,Q024,141-11 HOLLY AVENUE,Queens,11355,QUEENS   ,40.75146,-73.817849,7,20,1205,4117403,4052010021,East Flushing                                                              ,"(40.75146, -73.817849)",1/31/18,2018
P.S. 152 - MANHATTAN,M,6,ELECTRICAL SYSTEMS,777711,CIP,M152,93 NAGLE AVENUE,Manhattan,10040,MANHATTAN,40.860412,-73.927936,12,10,283,1064149,1021730001,Washington Heights North                                                   ,"(40.860412, -73.927936)",1/31/18,2018
I.S. 291 - BROOKLYN,K,32,RENEWAL SBHC,2016400,CIP,K291,231 PALMETTO STREET,Brooklyn,11221,BROOKLYN ,40.695362,-73.915142,4,37,433,3076460,3033430001,Bushwick North                                                             ,"(40.695362, -73.915142)",1/31/18,2018
A. PHILIP RANDOLPH HS -MANHATT,M,6,EXT MASONRY/FLOOD ELMNTN/PARAPETS/ROOFS,64898000,CIP,M540,443 WEST 135 STREET,Manhattan,10031,MANHATTAN,40.818188,-73.950356,9,9,21703,1059409,1019570078,Manhattanville                                                             ,"(40.818188, -73.950356)",1/31/18,2018
BERGTRAUM HS - MANHATTAN,M,2,LIBRARY UPGRADE,2295000,CIP,M520,411 PEARL STREET,Manhattan,10038,MANHATTAN,40.711442,-74.000851,1,1,29,1001388,1001130100,Chinatown                                                                  ,"(40.711442, -74.000851)",1/31/18,2018
BROOKLYN LANDMARK ELEMENTARY S,K,23,ENY DANCE STUDIO,203800,CIP,K073,251 MACDOUGAL STREET,Brooklyn,11233,BROOKLYN ,40.680318,-73.910644,16,37,369,3041561,3015280001,Ocean Hill                                                                 ,"(40.680318, -73.910644)",1/31/18,2018
P.S. 233 - BROOKLYN,K,18,MASONRY/CORRODED BEAMS/ROOFS/PARAPETS,6285000,CIP,K233,9301 AVENUE B,Brooklyn,11236,BROOKLYN ,40.651022,-73.91402,17,42,930,3104990,3047530001,Rugby-Remsen Village                                                       ,"(40.651022, -73.91402)",1/31/18,2018
PORT RICHMOND HS - R,R,31,TCU REMOVAL/MASONRY/ROOFS/PARAPETS/FLOOD ELIM,21499000,CIP,R445,85 ST JOSEPHS AVENUE,Staten Island,10302,STATEN IS,40.634573,-74.141818,1,49,213,5026076,5011210001,Port Richmond                                                              ,"(40.634573, -74.141818)",1/31/18,2018
FORT HAMILTON HS - K,K,20,POOL BOILER,4395000,CIP,K490,8301 SHORE ROAD,Brooklyn,11209,BROOKLYN ,40.627835,-74.040046,10,43,46,3152318,3060130001,Bay Ridge                                                                  ,"(40.627835, -74.040046)",1/31/18,2018
P.P.A.S. - MANHATTAN,M,2,FY13 RESO A ROOM CONVERSIONS / PART,480000,CIP,M017,328 WEST 48 STREET,Manhattan,10036,MANHATTAN,40.761448,-73.988019,4,3,127,1025092,1010380014,Clinton                                                                    ,"(40.761448, -73.988019)",1/31/18,2018
CASCADES CTR FOR TCHING & LNG,M,1,ENY AUDITIORIUM UPGRADE,145747,CIP,M510,198 FORSYTH STREET,Manhattan,10002,MANHATTAN,40.72252,-73.990728,3,1,3601,1005626,1004220072,Chinatown                                                                  ,"(40.72252, -73.990728)",1/31/18,2018
MOTT HALL CHARTER SCHOOL,X,9,LOW VOLTAGE ELECTRICAL SYSTEM,1171000,CIP,X862,1260 FRANKLIN AVENUE,Bronx,10456,BRONX    ,40.830995,-73.902705,3,16,149,2004302,2026150014,Morrisania-Melrose                                                         ,"(40.830995, -73.902705)",1/31/18,2018
CURTIS HS - STATEN ISLAND,R,31,BRIDGE & REPAIR WK/PARAPETS/WASTE SYS/WINDOWS/ROOF,12443000,CIP,R450,105 HAMILTON AVENUE,Staten Island,10301,STATEN IS,40.644735,-74.081222,1,49,7,5106483,5000220001,West New Brighton-New Brighton-St. George                                  ,"(40.644735, -74.081222)",1/31/18,2018
FORT HAMILTON HS - K,K,20,FY16 RESO A ATHLETIC FIELD UPGRADE,3538000,CIP,K490,8301 SHORE ROAD,Brooklyn,11209,BROOKLYN ,40.627835,-74.040046,10,43,46,3152318,3060130001,Bay Ridge                                                                  ,"(40.627835, -74.040046)",1/31/18,2018
M.S./H.S. 368 - BRONX,X,10,PAVED AREAS CONCRETE,267225,CIP,X368,2975 TIBBETT AVENUE,Bronx,10463,BRONX    ,40.879368,-73.909896,8,11,29302,2112838,2057160725,Spuyten Duyvil-Kingsbridge                                                 ,"(40.879368, -73.909896)",1/31/18,2018
EL PUENTE ACADEMY - BROOKLYN,K,14,MASONRY/WINDOWS/PARAPETS/ROOFS,4212649,CIP,K778,250 HOOPER STREET,Brooklyn,11211,BROOKLYN ,40.705898,-73.955611,1,33,529,3379706,3022070002,Williamsburg                                                               ,"(40.705898, -73.955611)",1/31/18,2018
WILLIAM E. GRADY VOC HS - K,K,21,FY16 RESO A CULINARY ARTS ROOM,1692000,CIP,K620,25 BRIGHTON 4TH ROAD,Brooklyn,11235,BROOKLYN ,40.582585,-73.963477,13,48,366,3196378,3072610201,Brighton Beach                                                             ,"(40.582585, -73.963477)",1/31/18,2018
I.S. 14 - BROOKLYN,K,22,WATER PENETRATION/PLANYC BOILER/PLANYC CLIMATE,8219000,CIP,K014,2424 BATCHELDER STREET,Brooklyn,11235,BROOKLYN ,40.593521,-73.937672,15,48,596,3203617,3074240001,Sheepshead Bay-Gerritsen Beach-Manhattan Beach                             ,"(40.593521, -73.937672)",1/31/18,2018
P.S. 183 - MANHATTAN,M,2,EXTERIOR MASONRY/FLOOD ELIMINATION/ PARAPETS/ROOFS,11870000,CIP,M183,419 EAST 66 STREET,Manhattan,10065,MANHATTAN,40.763736,-73.95815,8,5,116,1045569,1014610007,Lenox Hill-Roosevelt Island                                                ,"(40.763736, -73.95815)",1/31/18,2018
P.P.A.S. - MANHATTAN,M,2,MASONRY/AUD UPG/WIN/FLOOD/PARAPETS/ROOFS/FA,7315000,CIP,M017,328 WEST 48 STREET,Manhattan,10036,MANHATTAN,40.761448,-73.988019,4,3,127,1025092,1010380014,Clinton                                                                    ,"(40.761448, -73.988019)",1/31/18,2018
BEACH CHANNEL HS - QUEENS,Q,27,SANDY FIRE ALARM/NON SANDY PA SYSTEM,8947000,CIP,Q410,100-00 BEACH CHANNEL DRIVE,Queens,11694,QUEENS   ,40.586066,-73.822624,14,32,94201,4303773,4161670099,Breezy Point-Belle Harbor-Rockaway Park-Broad Channel                      ,"(40.586066, -73.822624)",1/31/18,2018
P.S. 150 - BROOKLYN,K,23,EXTERIOR MASONRY DEFECTS/FLOOD ELIMINATION/PARAPET,4415000,CIP,K150,364 SACKMAN STREET,Brooklyn,11212,BROOKLYN ,40.66896,-73.904726,16,41,908,3084012,3037440009,Brownsville                                                                ,"(40.66896, -73.904726)",1/31/18,2018
P.S. 219 - QUEENS,Q,25,LOW VOLTAGE ELECTRICAL/KITCHEN UPGRADE,1843000,CIP,Q219,144-39 GRAVETT ROAD,Queens,11367,QUEENS   ,40.735275,-73.823778,8,24,809,4448708,4065070001,Kew Gardens Hills                                                          ,"(40.735275, -73.823778)",1/31/18,2018
P.S. 215 - QUEENS,Q,27,LOW VOLTAGE ELECTRICAL SYSTEM,1213000,CIP,Q215,535 BRIAR PLACE,Queens,11691,QUEENS   ,40.5993,-73.758206,14,31,99801,4301194,4157720031,Far Rockaway-Bayswater                                                     ,"(40.5993, -73.758206)",1/31/18,2018
P.S. 238 - BROOKLYN,K,21,EXTERIOR MASONRY/PARAPETS,6960000,CIP,K238,1633 EAST 8 STREET,Brooklyn,11223,BROOKLYN ,40.608862,-73.965058,15,44,420,3176229,3066400013,Homecrest                                                                  ,"(40.608862, -73.965058)",1/31/18,2018
LONG ISLAND CITY HS - Q,Q,30,FIRE ALARM SYSTEM/BUILDING MGMT SYSTEM,18432800,CIP,Q452,14-30 BROADWAY,Queens,11106,QUEENS   ,40.765826,-73.9328,1,22,45,4467709,4005290002,Astoria                                                                    ,"(40.765826, -73.9328)",1/31/18,2018
PRE-K CENTER @ 1355 84TH STREE,K,20,Lease,0,CAP,K762,1355 84TH STREET,Brooklyn,11228,BROOKLYN ,40.614466,-74.011425,10,43,150,3335077,3063090048,Dyker Heights                                                              ,"(40.614466, -74.011425)",1/31/18,2018
THE BROOKLYN SCHOOL FOR SOCIAL,K,32,EXTERIOR MASONRY/PARAPETS/ROOFS,20195000,CIP,K480,400 IRVING AVENUE,Brooklyn,11237,BROOKLYN ,40.69697,-73.910791,4,37,435,3076908,3033650098,Bushwick North                                                             ,"(40.69697, -73.910791)",1/31/18,2018
P.S. 62 - BRONX,X,8,EXT MASONRY/PARAPETS,8142000,CIP,X062,660 FOX STREET,Bronx,10455,BRONX    ,40.814031,-73.900609,2,8,83,2005089,2026830065,Longwood                                                                   ,"(40.814031, -73.900609)",1/31/18,2018
P.S. 131 - QUEENS,Q,29,Addition,0,CAP,Q131,170-45 84TH AVENUE,Queens,11432,QUEENS   ,40.716617,-73.794637,8,24,456,4211112,4098750001,Briarwood-Jamaica Hills                                                    ,"(40.716617, -73.794637)",1/31/18,2018
P.S. 354 - QUEENS,Q,28,DEFECTIVE PARAPET WALL/ROOFS/EXT MASONRY,5977000,CIP,Q030,126-10 BEDELL STREET,Queens,11434,QUEENS   ,40.68031,-73.774432,12,28,33402,4270045,4124950065,Springfield Gardens North                                                  ,"(40.68031, -73.774432)",1/31/18,2018
P.S. 5 - MANHATTAN,M,6,PARAPETS/ROOFS/WINDOWS/PLAYGROUND REDEVELOPMENT,11770000,CIP,M005,3703 TENTH AVENUE,Manhattan,10034,MANHATTAN,40.85899,-73.922894,12,10,299,1084201,1021500030,Marble Hill-Inwood                                                         ,"(40.85899, -73.922894)",1/31/18,2018
P.S. 84 - MANHATTAN,M,3,RESO A GREENROOF,2005000,CIP,M084,32 WEST 92 STREET,Manhattan,10025,MANHATTAN,40.789526,-73.967574,7,6,177,1081042,1012050006,Upper West Side                                                            ,"(40.789526, -73.967574)",1/31/18,2018
P.S. 214 - QUEENS,Q,25,PARAPETS/FLOOD/EXT MASONRY/ROOFS,6786000,CIP,Q214,31-15 140 STREET,Queens,11354,QUEENS   ,40.770387,-73.828617,7,20,88901,4100846,4044130020,Flushing                                                                   ,"(40.770387, -73.828617)",1/31/18,2018
I.S. 123 - BRONX,X,8,RENEWAL SCHOOL BASED HEALTH CENTER,1950000,CIP,X123,1025 MORRISON AVENUE,Bronx,10472,BRONX    ,40.825403,-73.873666,9,18,48,2087014,2037180001,Soundview-Bruckner                                                         ,"(40.825403, -73.873666)",1/31/18,2018
P.S. 152 - MANHATTAN,M,6,WATER INFILTRATION,2238000,CIP,M152,93 NAGLE AVENUE,Manhattan,10040,MANHATTAN,40.860412,-73.927936,12,10,283,1064149,1021730001,Washington Heights North                                                   ,"(40.860412, -73.927936)",1/31/18,2018
P.S. 41 - STATEN ISLAND,R,31,FY15 RESO A SECURITY CAMERAS,302869.56,CIP,R041,216 CLAWSON STREET,Staten Island,10306,STATEN IS,40.574044,-74.109282,2,50,122,5052791,5036450007,New Dorp-Midland Beach                                                     ,"(40.574044, -74.109282)",1/31/18,2018
P.S. 677 - BROOKLYN,K,84,Lease,0,CAP,K677,139 MENAHAN STREET,Brooklyn,11221,BROOKLYN ,40.695717,-73.919473,4,37,419,3325706,3033060015,Bushwick South                                                             ,"(40.695717, -73.919473)",1/31/18,2018
Q075 SPED - QUEENS,Q,28,FLOOD ELIMINATION/REINFORCING SUPPORT ELEMENTS,2167000,CIP,Q048,155-02 108 AVENUE,Queens,11433,QUEENS   ,40.694119,-73.797003,12,28,254,4216099,4101440042,South Jamaica                                                              ,"(40.694119, -73.797003)",1/31/18,2018
P.S. 317 - QUEENS,Q,27,SANDY: HEAT/FLOOD/ELEC/ INTERIOR/NON-SANDY:CLIMATE,6339000,CIP,Q225,1-90 BEACH 110 STREET,Queens,11694,QUEENS   ,40.580928,-73.831836,14,32,938,4303853,4161810001,Breezy Point-Belle Harbor-Rockaway Park-Broad Channel                      ,"(40.580928, -73.831836)",1/31/18,2018
CHELSEA VOC HS - MANHATTAN,M,2,LOW VOLTAGE ELECTRICAL SYSTEM/ANSUL SYSTEM,2314098,CIP,M615,131 AVE OF THE AMERICAS,Manhattan,10013,MANHATTAN,40.7244,-74.004625,2,3,37,1007378,1004910016,SoHo-TriBeCa-Civic Center-Little Italy                                     ,"(40.7244, -74.004625)",1/31/18,2018
HARVEY MILK SCHOOL - MANHATTAN,M,2,FY15 RESO A SECURITY CAMERAS,121000,CIP,M807,2-10 ASTOR PLACE,Manhattan,10003,MANHATTAN,40.730038,-73.992632,2,2,57,1080092,1005450026,West Village                                                               ,"(40.730038, -73.992632)",1/31/18,2018
P.S. 254 - QUEENS,Q,27,ROOF/PARAPETS/EXT MASONRY/PAVED AREA CONCRETE,7286400,CIP,Q254,84-40 101ST STREET,Queens,11418,QUEENS   ,40.697961,-73.84796,9,32,24,4191296,4091770023,Richmond Hill                                                              ,"(40.697961, -73.84796)",1/31/18,2018
I.S. 340 - BROOKLYN,K,13,EXTERIOR MASONRY/FLOOD ELIMINATION,1748000,CIP,K874,227 STERLING PLACE,Brooklyn,11238,BROOKLYN ,40.676094,-73.97038,8,35,163,3029060,3011640057,Prospect Heights                                                           ,"(40.676094, -73.97038)",1/31/18,2018
LIBERTY AVENUE MIDDLE SCHOOL,K,19,ENY SCIENCE LAB UPGRADES,347000,CIP,K302,350 LINWOOD STREET,Brooklyn,11208,BROOKLYN ,40.677104,-73.883433,5,37,1170,3088357,3039690001,East New York                                                              ,"(40.677104, -73.883433)",1/31/18,2018
HS OF GRAPHIC COMM. ARTS (VOC),M,2,EXT MASONRY/ROOFS/PARAPETS,7649000,CIP,M625,439 WEST 49 STREET,Manhattan,10019,MANHATTAN,40.76337,-73.990593,4,3,127,1026646,1010590015,Clinton                                                                    ,"(40.76337, -73.990593)",1/31/18,2018
P.S. 105 - BRONX,X,11,WATER INFILTRATION/PARAPETS,4228000,CIP,X105,725 BRADY AVENUE,Bronx,10462,BRONX    ,40.852398,-73.866617,11,13,22404,2048794,2042880001,Pelham Parkway                                                             ,"(40.852398, -73.866617)",1/31/18,2018
P.S. 160 - QUEENS,Q,28,CHIMNEY/ROOFS/PARAPETS/FLOOD,9370000,CIP,Q160,109-59 INWOOD STREET,Queens,11435,QUEENS   ,40.688103,-73.800415,12,28,196,4258143,4119420302,South Jamaica                                                              ,"(40.688103, -73.800415)",1/31/18,2018
NYC LAB MIDDLE SCHOOL - MANHAT,M,2,LOW VOLTAGE ELECTRICAL SYSTEM,845000,CIP,M070,333 WEST 17 STREET,Manhattan,10011,MANHATTAN,40.742129,-74.002198,4,3,83,1079152,1007410010,Hudson Yards-Chelsea-Flatiron-Union Square                                 ,"(40.742129, -74.002198)",1/31/18,2018
P.S. 236 - BRONX,X,9,FALLING COPING STONES/EXT MASONRY,2589000,CIP,X173,1871 WALTON AVENUE,Bronx,10453,BRONX    ,40.848899,-73.909528,5,14,23301,2098479,2028510021,Mount Hope                                                                 ,"(40.848899, -73.909528)",1/31/18,2018
P.S. 212 - BROOKLYN,K,21,FY17 RESO A LIBRARY UPGRADES,278500,CIP,K212,87 BAY 49 STREET,Brooklyn,11214,BROOKLYN ,40.587616,-73.985948,13,47,314,3187407,3069170001,Gravesend                                                                  ,"(40.587616, -73.985948)",1/31/18,2018
SUSAN E. WAGNER HS - STATEN IS,R,31,STH SBHC,1999000,CIP,R460,1200 MANOR ROAD,Staten Island,10314,STATEN IS,40.596803,-74.124227,2,50,181,5146639,5009550100,Todt Hill-Emerson Hill-Heartland Village-Lighthouse Hill                   ,"(40.596803, -74.124227)",1/31/18,2018
SCIENCE SKILLS CENTER HS - K,K,13,FY16 RESO A LIBRARY UPGRADE,574000,CIP,K805,49 FLATBUSH AVENUE EXTENSION,Brooklyn,11201,BROOKLYN ,40.697339,-73.985016,2,33,15,3000216,3001200020,DUMBO-Vinegar Hill-Downtown Brooklyn-Boerum Hill                           ,"(40.697339, -73.985016)",1/31/18,2018
P.S. 112 - BRONX,X,11,PLANYC BOILER CNVRSN/PLANYC CLIMATE CTRL,5722000,CIP,X112,1925 SCHIEFFELIN AVENUE,Bronx,10466,BRONX    ,40.885008,-73.843193,12,12,458,2065991,2049050500,Eastchester-Edenwald-Baychester                                            ,"(40.885008, -73.843193)",1/31/18,2018
JOHN F. KENNEDY HS - BRONX,X,10,PARKING AREA LIGHTING/TCU REMOVAL AND PLAYGROUND,2138000,CIP,X475,99 TERRACE VIEW AVENUE,Bronx,10463,BRONX    ,40.877105,-73.912256,8,10,309,1064532,1022150080,Marble Hill-Inwood                                                         ,"(40.877105, -73.912256)",1/31/18,2018
M.S./H.S. 272 - BRONX,X,11,FY16 RESO A GYMNASIUM UPGRADE,148500,CIP,X113,3710 BARNES AVENUE,Bronx,10467,BRONX    ,40.880873,-73.860904,12,12,390,2058396,2046750020,Williamsbridge-Olinville                                                   ,"(40.880873, -73.860904)",1/31/18,2018
CURTIS HIGH SCHOOL ANNEX - STA,R,78,Addition,69360558,CAP,R453,105B HAMILTON AVENUE,Staten Island,10301,STATEN IS,40.644735,-74.081222,1,49,7,,,West New Brighton-New Brighton-St. George                                  ,"(40.644735, -74.081222)",1/31/18,2018
P.S. 23 - BRONX,X,10,FY17 RESOA PLAYGROUND REDEVELOPMENT,297500,CIP,X023,2151 WASHINGTON AVENUE,Bronx,10457,BRONX    ,40.85294,-73.894742,6,15,395,2090472,2030370079,Claremont-Bathgate                                                         ,"(40.85294, -73.894742)",1/31/18,2018
P.S. 398 - QUEENS,Q,30,New,62139000,CAP,Q398,69-01 34TH AVENUE,Queens,11377,QUEENS   ,40.752493,-73.896922,3,25,291,4028492,4012420032,Jackson Heights                                                            ,"(40.752493, -73.896922)",1/31/18,2018
UNIVERSITY HEIGHTS HS - BRONX,X,7,ATHLETIC FIELDS,7421000,CIP,X471,701 ST ANNS AVENUE,Bronx,10455,BRONX    ,40.81825,-73.91103,1,17,71,2001153,2023590240,Melrose South-Mott Haven North                                             ,"(40.81825, -73.91103)",1/31/18,2018
NEW DORP HS - STATEN ISLAND,R,31,ATHLETIC FIELDS,7825000,CIP,R436,465 NEW DORP LANE,Staten Island,10306,STATEN IS,40.569393,-74.107737,2,50,11202,5055367,5039300010,New Dorp-Midland Beach                                                     ,"(40.569393, -74.107737)",1/31/18,2018
P.S. 3 - BRONX,X,10,HVAC CONTROLS/VENTILATION,5388000,CIP,X003,2100 LAFONTAINE AVE,Bronx,10457,BRONX    ,40.849897,-73.892289,6,15,37504,2099356,2030620043,East Tremont                                                               ,"(40.849897, -73.892289)",1/31/18,2018
P.S. 129 - QUEENS,Q,25,Demo,1692000,CAP,Q129,128-02 7TH AVENUE,Queens,11356,QUEENS   ,40.790638,-73.839771,7,19,945,4096774,4039760001,Whitestone                                                                 ,"(40.790638, -73.839771)",1/31/18,2018
ARCHER ELEMENTARY SCHOOL - BRO,X,12,FLOOD ELIMINATION/ROOFS,4100000,CIP,X102,1827 ARCHER STREET,Bronx,10460,BRONX    ,40.837631,-73.866036,9,18,21601,2028640,2039210030,West Farms-Bronx River                                                     ,"(40.837631, -73.866036)",1/31/18,2018
P.S. 199 - BRONX,X,9,5TH SBHC,2247300,CIP,X104,1449 SHAKESPEARE AVENUE,Bronx,10452,BRONX    ,40.842943,-73.920563,4,16,21302,2088263,2028730027,Highbridge                                                                 ,"(40.842943, -73.920563)",1/31/18,2018
Q177 SPED - QUEENS,Q,26,PLANYC BOILER CONVERSION/PLANYC CLIMATE CONTROL,7221000,CIP,Q177,56-37 188 STREET,Queens,11365,QUEENS   ,40.74391,-73.788133,11,20,1417,4128231,4056740002,Auburndale                                                                 ,"(40.74391, -73.788133)",1/31/18,2018
I.S. 259 - BROOKLYN,K,20,PLANYC BOILER CONVERSION/CLIMATE CTRL,6758000,CIP,K259,7305 FT HAMILTON PKWY,Brooklyn,11228,BROOKLYN ,40.62668,-74.01512,10,43,206,3148031,3059230001,Dyker Heights                                                              ,"(40.62668, -74.01512)",1/31/18,2018
P.S. 230 - BROOKLYN,K,15,ELECTRICAL SYSTEMS,864680,CIP,K230,1 ALBEMARLE ROAD,Brooklyn,11218,BROOKLYN ,40.645017,-73.980761,12,39,498,3124109,3053230032,Kensington-Ocean Parkway                                                   ,"(40.645017, -73.980761)",1/31/18,2018
P.S. 48 - STATEN ISLAND,R,31,RETAINING WALL,464786,CIP,R048,1055 TARGEE STREET,Staten Island,10304,STATEN IS,40.60223,-74.091355,2,50,50,5046419,5031710001,Grasmere-Arrochar-Ft. Wadsworth                                            ,"(40.60223, -74.091355)",1/31/18,2018
I.S. 372 - MANHATTAN,M,4,SCIENCE LAB UPGRADE,1116000,CIP,M117,240 EAST 109 STREET,Manhattan,10029,MANHATTAN,40.79307,-73.942303,11,8,170,1052433,1016560100,East Harlem South                                                          ,"(40.79307, -73.942303)",1/31/18,2018
P.S. 130 - BROOKLYN,K,15,WATER PENETRATION THROUGH EXTERIOR/PARAPETS/ROOFS,12025000,CIP,K130,70 OCEAN PARKWAY,Brooklyn,11218,BROOKLYN ,40.648884,-73.975607,7,39,500,3124019,3053190001,Windsor Terrace                                                            ,"(40.648884, -73.975607)",1/31/18,2018
P.S. 181 - QUEENS,Q,29,FLOORS & WALLS/ROOFS/PARAPETS/EXT MASONRY/FLOOD,4848000,CIP,Q181,148-15 230 STREET,Queens,11413,QUEENS   ,40.656126,-73.753207,13,31,694,4291453,4137180001,Springfield Gardens South-Brookville                                       ,"(40.656126, -73.753207)",1/31/18,2018
P.S. 241 - MANHATTAN,M,3,FLOOD ELIMINATION,1337000,CIP,M113,240 WEST 113 STREET,Manhattan,10026,MANHATTAN,40.801689,-73.954908,10,9,216,1055111,1018280015,Central Harlem South                                                       ,"(40.801689, -73.954908)",1/31/18,2018
THE FORWARD SCHOOL - BRONX,X,11,LOW VOLTAGE ELECTRICAL SYSTEM,1060000,CIP,X113,3710 BARNES AVENUE,Bronx,10467,BRONX    ,40.880873,-73.860904,12,12,390,2058396,2046750020,Williamsbridge-Olinville                                                   ,"(40.880873, -73.860904)",1/31/18,2018
YOUNG WOMENS' LEADERSHIP SCHOO,Q,28,ROOF STRUCTURAL DAMAGE/EXTERIOR MASONRY,1545000,CIP,Q680,150-91 87 ROAD,Queens,11432,QUEENS   ,40.707527,-73.806412,8,24,236,4207510,4097070048,Briarwood-Jamaica Hills                                                    ,"(40.707527, -73.806412)",1/31/18,2018
I.S. 226 - QUEENS,Q,27,TCU REMOVAL AND PLAYGROUND REDEVELOPMENT,3960000,CIP,Q226,121-10 ROCKAWAY BOULEVARD,Queens,11420,QUEENS   ,40.675771,-73.816938,10,28,840,4253607,4117140100,South Ozone Park                                                           ,"(40.675771, -73.816938)",1/31/18,2018
ALFRED E. SMITH HS - X,X,7,FY16 RESO A AUDITORIUM UPGRADE,464500,CIP,X600,333 EAST 151 STREET,Bronx,10451,BRONX    ,40.818232,-73.919867,1,17,67,2001874,2024110022,Melrose South-Mott Haven North                                             ,"(40.818232, -73.919867)",1/31/18,2018
SUSAN E. WAGNER HS ANNEX - STA,R,78,Addition,24981900,CAP,R462,1220 MANOR ROAD,Staten Island,10314,STATEN IS,40.596624,-74.124334,2,50,181,5164530,5009550100,Todt Hill-Emerson Hill-Heartland Village-Lighthouse Hill                   ,"(40.596624, -74.124334)",1/31/18,2018
P.S. 167 - BROOKLYN,K,17,EXT MASONRY - WATER PENETRATION/PARAPETS/ROOFS,10104000,CIP,K167,1025 EASTERN PARKWAY,Brooklyn,11213,BROOKLYN ,40.669001,-73.934635,8,35,353,3037303,3013890035,Crown Heights North                                                        ,"(40.669001, -73.934635)",1/31/18,2018
BAYSIDE HIGH SCHOOL - QUEENS,Q,26,TCU REMOVAL / PLAYGROUND REDEVELOPMENT,853000,CIP,Q405,32-24 CORPORAL KENNEDY STREET,Queens,11361,QUEENS   ,40.771755,-73.780296,11,19,1097,4134578,4060440001,Bayside-Bayside Hills                                                      ,"(40.771755, -73.780296)",1/31/18,2018
P.S. 298 - BROOKLYN,K,23,ENY PLAYGROUND UPGRADE,337600,CIP,K298,85 WATKINS STREET,Brooklyn,11212,BROOKLYN ,40.670986,-73.908194,16,37,906,3080768,3035070007,Brownsville                                                                ,"(40.670986, -73.908194)",1/31/18,2018
P.S. 123 - QUEENS,Q,27,TCU REMOVAL & PLAYGROUND REDEVELOPMENT,1082000,CIP,Q123,145-01 119 AVENUE,Queens,11436,QUEENS   ,40.678296,-73.79562,12,28,18402,4260828,4120190010,Baisley Park                                                               ,"(40.678296, -73.79562)",1/31/18,2018
EXCELSIOR PREP HIGH SCHOOL - Q,Q,29,EXT MASONRY/ROOFS/PAVED AREA-CONCRETE,6980000,CIP,Q420,143-10 SPRINGFIELD BLVD,Queens,11413,QUEENS   ,40.668235,-73.756839,12,31,330,4280845,4130570056,Springfield Gardens North                                                  ,"(40.668235, -73.756839)",1/31/18,2018
BKLYN STUDIO SEC. SCL - BROOKL,K,21,EXT MASONRY/ROOFS/WINDOWS,6137000,CIP,K721,8310 21ST AVE,Brooklyn,11214,BROOKLYN ,40.604879,-73.994404,11,47,288,3165232,3063290032,Bensonhurst West                                                           ,"(40.604879, -73.994404)",1/31/18,2018
P.S. 155 - QUEENS,Q,27,TCU REMOVAL - PLAYGROUND REDEVELOPMENT,1411569,CIP,Q155,130-02 115 AVENUE,Queens,11420,QUEENS   ,40.67956,-73.8106,10,28,176,4252357,4116730001,South Ozone Park                                                           ,"(40.67956, -73.8106)",1/31/18,2018
P.S. 196 - BRONX,X,12,EXTERIOR MASONRY/FLOOD ELIMINATION/PARAPETS/ROOFS,8481000,CIP,X077,1250 WARD AVENUE,Bronx,10472,BRONX    ,40.830691,-73.877743,9,18,54,2088553,2037750025,West Farms-Bronx River                                                     ,"(40.830691, -73.877743)",1/31/18,2018
P.S. 4 - STATEN ISLAND,R,31,FIRE ALARM SYSTEM REPLACEMENT,787419,CIP,R004,200 NEDRA LANE,Staten Island,10312,STATEN IS,40.552975,-74.194597,3,51,17010,5079499,5060250030,Arden Heights                                                              ,"(40.552975, -74.194597)",1/31/18,2018
P.S. @ 4302 4TH AVENUE - BROOK,K,15,New,600000,CAP,K557,4302 4TH AVENUE,Brooklyn,11232,BROOKLYN ,40.650305,-74.008602,7,38,82,3337162,3007280036,Sunset Park West                                                           ,"(40.650305, -74.008602)",1/31/18,2018
P.S. 29 - STATEN ISLAND,R,31,EXTERIOR MASONRY/ROOFS/PARAPETS,3790000,CIP,R029,1581 VICTORY BLVD,Staten Island,10314,STATEN IS,40.613604,-74.115988,1,50,147,5009028,5003310001,Westerleigh                                                                ,"(40.613604, -74.115988)",1/31/18,2018
MOTT HAVEN COMMUNITY HIGH SCHO,X,7,FLOOD ELIMINATION/WINDOWS,3658000,CIP,X655,455 SOUTHERN BLVD,Bronx,10455,BRONX    ,40.810803,-73.907015,1,8,35,2003883,2025760026,Mott Haven-Port Morris                                                     ,"(40.810803, -73.907015)",1/31/18,2018
P.S. 236 - BROOKLYN,K,22,EXT MASONRY/ROOFS/PARAPETS/FLOOD/TCU/IRON FENCE,16321000,CIP,K236,6302 AVENUE U,Brooklyn,11234,BROOKLYN ,40.615998,-73.912989,18,46,698,3326821,3084640001,Georgetown-Marine Park-Bergen Beach-Mill Basin                             ,"(40.615998, -73.912989)",1/31/18,2018
I.S. 88 - BROOKLYN,K,15,PLANYC BOILER REPLACEMENT/PLANYC CLIMATE CONTROL,5896000,CIP,K088,544 7TH AVENUE,Brooklyn,11215,BROOKLYN ,40.660024,-73.987637,7,38,147,3331276,3008800001,Sunset Park West                                                           ,"(40.660024, -73.987637)",1/31/18,2018
P.S. 116 - QUEENS,Q,29,EXT MASONRY/ROOFS/CONCRETE ROOF DECK/PARAPETS,8800000,CIP,Q116,107-25 WREN PLACE,Queens,11433,QUEENS   ,40.700606,-73.782302,12,27,414,4218416,4102500001,South Jamaica                                                              ,"(40.700606, -73.782302)",1/31/18,2018
P.S. 123 - MANHATTAN,M,5,FLOOD ELIMINATION,4815000,CIP,M123,301 WEST 140 STREET,Manhattan,10030,MANHATTAN,40.819767,-73.944433,10,9,22102,1060726,1020420035,Central Harlem North-Polo Grounds                                          ,"(40.819767, -73.944433)",1/31/18,2018
P.S. 155 - BROOKLYN,K,23,ENY LIBRARY UPGRADE,198000,CIP,K155,1355 HERKIMER STREET,Brooklyn,11233,BROOKLYN ,40.677415,-73.908734,16,37,369,3042263,3015520043,Ocean Hill                                                                 ,"(40.677415, -73.908734)",1/31/18,2018
DEWITT CLINTON HS - X,X,10,EXTERIOR MASONRY/FLOOD ELIMINATION/PARAPETS/ROOF,27189000,CIP,X440,100 W MOSHOLU PKWY S,Bronx,10468,BRONX    ,40.882178,-73.88691,7,11,409,2095215,2032510201,Van Cortlandt Village                                                      ,"(40.882178, -73.88691)",1/31/18,2018
AUGUST MARTIN HS - QUEENS,Q,27,LIBRARY UPGRADE,1644000,CIP,Q400,156-10 BAISLEY BLVD,Queens,11434,QUEENS   ,40.675633,-73.783342,12,28,294,4265978,4122610001,Springfield Gardens North                                                  ,"(40.675633, -73.783342)",1/31/18,2018
P.S. 249 - BROOKLYN,K,17,LOW VOLT/PLANYC CLIMATE CTRL/PLANYC BOILER CONV,7867000,CIP,K249,18 MARLBOROUGH ROAD,Brooklyn,11226,BROOKLYN ,40.64971,-73.966046,14,40,506,3116438,3050750001,Flatbush                                                                   ,"(40.64971, -73.966046)",1/31/18,2018
P.S. 112 - QUEENS,Q,30,FY17 RESO A PLAYGROUND REDEVELOPMENT,1067000,CIP,Q112,25-05 37 AVENUE,Queens,11101,QUEENS   ,40.756891,-73.934523,1,26,33,4004170,4003440001,Queensbridge-Ravenswood-Long Island City                                   ,"(40.756891, -73.934523)",1/31/18,2018
P.S. 5 - STATEN ISLAND,R,31,Demo,530000,CAP,R005,348 DEISIUS STREET,Staten Is,10312,R,40.530169,-74.187635,503,51,176,5065660001,5082407,Annadale-Huguenot-Prince's Bay-Eltingville,"(40.530169, -74.187635)",1/6/22,2022
TOTTENVILLE HS - STATEN ISLAND,R,31,FY 16 RESO A WIRING UPGRADE,1335000,CIP,R455,100 LUTEN AVENUE,Staten Island,10312,STATEN IS,40.528092,-74.192032,3,51,198,5082634,5066130001,Annadale-Huguenot-Prince's Bay-Eltingville                                 ,"(40.528092, -74.192032)",1/31/18,2018
I.S. 109 - QUEENS,Q,29,FY15RESO A SCIENCE LAB UPGRADES,417000,CIP,Q109,213-10 92 AVENUE,Queens,11428,QUEENS   ,40.720713,-73.747001,13,23,542,4226839,4106260001,Queens Village                                                             ,"(40.720713, -73.747001)",1/31/18,2018
HARRY S. TRUMAN HS - X,X,11,EXT MASONRY/PARAPETS,3715000,CIP,X455,750 BAYCHESTER AVENUE,Bronx,10475,BRONX    ,40.874091,-73.833904,10,12,46201,2116159,2051410150,Co-op City                                                                 ,"(40.874091, -73.833904)",1/31/18,2018
I.S. 363 - BROOKLYN,K,23,ENY AUDITORIUM UPGRADE,447349,CIP,K298,85 WATKINS STREET,Brooklyn,11212,BROOKLYN ,40.670986,-73.908194,16,37,906,3080768,3035070007,Brownsville                                                                ,"(40.670986, -73.908194)",1/31/18,2018
P.S. 214 - QUEENS,Q,25,RESO A SUPPLEMENTAL COOLING,270000,CIP,Q214,31-15 140 STREET,Queens,11354,QUEENS   ,40.770387,-73.828617,7,20,88901,4100846,4044130020,Flushing                                                                   ,"(40.770387, -73.828617)",1/31/18,2018
NEW UTRECHT HS - BROOKLYN,K,20,ATHLETIC FIELD REPAIRS,5290000,CIP,K446,1601 80 STREET,Brooklyn,11214,BROOKLYN ,40.613262,-74.003404,11,43,182,3162711,3062710001,Bensonhurst West                                                           ,"(40.613262, -74.003404)",1/31/18,2018
BROOKLYN ACADEMY HS - BROOKLYN,K,13,WORK REQUIRED TO OBTAIN A C OF O,9436400,CIP,K458,832 MARCY AVENUE,Brooklyn,11216,BROOKLYN ,40.685004,-73.947152,3,36,249,3051641,3018230038,Bedford                                                                    ,"(40.685004, -73.947152)",1/31/18,2018
X811 SPED - BRONX,X,12,PROBES-REPAIRS/PARAPETS/ ROOFS/WINDOWS,6474000,CIP,X084,1434 LONGFELLOW AVENUE,Bronx,10459,BRONX    ,40.830589,-73.887587,3,17,123,2010910,2030070008,Crotona Park East                                                          ,"(40.830589, -73.887587)",1/31/18,2018
P.S. 34 - BROOKLYN,K,14,PLANYC BOILER CNVRSN/PLANYC CLIMATE CTRL,4448000,CIP,K034,131 NORMAN AVENUE,Brooklyn,11222,BROOKLYN ,40.726135,-73.949649,1,33,573,3065733,3026220028,Greenpoint                                                                 ,"(40.726135, -73.949649)",1/31/18,2018
I.S. 73 - QUEENS,Q,24,LOW VOLT ELECTRICAL SYSTEMS,925000,CIP,Q073,70-02 54 AVENUE,Queens,11378,QUEENS   ,40.729215,-73.893624,5,30,49302,4058611,4025030031,Maspeth                                                                    ,"(40.729215, -73.893624)",1/31/18,2018
P.S. 48 - BROOKLYN,K,20,FLOOD ELIMINATION/EXTERIOR MASONRY/WINDOWS,10800000,CIP,K048,6015 18 AVENUE,Brooklyn,11204,BROOKLYN ,40.621871,-73.987396,12,44,244,3132140,3055190001,Borough Park                                                               ,"(40.621871, -73.987396)",1/31/18,2018
I.S. 201 - BROOKLYN,K,20,PARAPETS/EXT MASONRY/CONCRETE/FLOOD/ROOF,20782700,CIP,K201,8010 12 AVENUE,Brooklyn,11228,BROOKLYN ,40.618676,-74.012722,10,43,166,3162973,3062780022,Dyker Heights                                                              ,"(40.618676, -74.012722)",1/31/18,2018
I.S. 323 - MANHATTAN,M,2,New,98820000,CAP,M323,75 MORTON STREET,Manhattan,10014,MANHATTAN,40.730999,-74.007191,2,3,69,1010407,1006030049,West Village                                                               ,"(40.730999, -74.007191)",1/31/18,2018
P.S. 152 - BRONX,X,8,WINDOWS,3777000,CIP,X152,1007 EVERGREEN AVENUE,Bronx,10472,BRONX    ,40.824054,-73.880039,9,17,52,2023336,2037110001,Soundview-Bruckner                                                         ,"(40.824054, -73.880039)",1/31/18,2018
P.S. 57 - STATEN ISLAND,R,31,C OF O,598000,CIP,R057,140 PALMA DRIVE,Staten Island,10304,STATEN IS,40.611508,-74.083177,1,49,40,5043519,5028880040,Grymes Hill-Clifton-Fox Hills                                              ,"(40.611508, -74.083177)",1/31/18,2018
BENJAMIN N. CARDOZO HS - QUEEN,Q,26,ATHLETIC FIELDS/TCU REMOVAL & PLAYGROUND REDEVELOP,7897628,CIP,Q415,57-00 223 STREET,Queens,11364,QUEENS   ,40.752333,-73.75599,11,23,138501,4161735,4075290001,Oakland Gardens                                                            ,"(40.752333, -73.75599)",1/31/18,2018
BRONX HS OF SCIENCE - X,X,10,ROOF REPLACEMENT/PARAPETS,8985000,CIP,X445,75 W 205 STREET,Bronx,10468,BRONX    ,40.87759,-73.89104,7,11,409,2094706,2032510201,Van Cortlandt Village                                                      ,"(40.87759, -73.89104)",1/31/18,2018
AUGUST MARTIN HS - QUEENS,Q,27,LIBRARY UPGRADE,1644000,CIP,Q400,156-10 BAISLEY BLVD,Queens,11434,QUEENS   ,40.675633,-73.783342,12,28,294,4265978,4122610001,Springfield Gardens North                                                  ,"(40.675633, -73.783342)",11/13/17,2017
P.S. 104 - BROOKLYN,K,20,WATER INFILTRATION/FLOOD/PARAPETS/ROOFS,10521000,CIP,K104,9115 5TH AVENUE,Brooklyn,11209,BROOKLYN ,40.618415,-74.028842,10,43,160,3154775,3060880001,Bay Ridge                                                                  ,"(40.618415, -74.028842)",,1900
